,stop_id,name,lat,lon
0,2264,Eglinton Ave East At Don Valley Pkwy East Side,43.72333,-79.3289199
1,15846,Huntingwood Dr At Dunmurray Blvd,43.78954,-79.3060799
2,6771,Prince Edward Dr South At Bloor St West South Side,43.6480199,-79.5053
3,7026,Royal York Rd At Royaleigh Ave,43.69852,-79.53356
4,13324,Morningview Trail At Old Finch Ave,43.8218399,-79.2017
5,11614,Steeles Ave East At Walkway To Joycedale St,43.83368,-79.2642599
6,0707,Opposite 724 Caledonia Rd,43.6999099,-79.4637499
7,10603,Finch Ave East At Walkway To Chester Le Blvd,43.7939599,-79.32804
8,5457,Leslie St At Marowyne Dr,43.77472,-79.36441
9,4887,Church St At Weston Rd East Side,43.7033199,-79.52488
10,9143,Hullmar Dr At Hisey Cres (North),43.77235,-79.5287499
11,9551,150 Murison Blvd,43.8001499,-79.20466
12,3095,Richgrove Dr At Martin Grove Rd,43.6767,-79.5644899
13,5910,Oakwood Ave At Jesmond Ave,43.6898299,-79.4397199
14,5662,McCowan Rd At Benleigh Dr,43.75845,-79.24634
15,10268,Spanbridge Rd At Grenoble Dr East Side,43.7128199,-79.32649
16,0136,Bathurst St At Finch Ave West,43.77362,-79.44272
17,14866,Weston Rd At Avon Cres,43.6811099,-79.47637
18,3683,Greenwood Ave At Oakvale Ave South Side,43.6793999,-79.3316199
19,0206,Bathurst St At Steeles Ave West North Side,43.7930399,-79.44571
20,7162,Sheppard Ave East At Abbotsfield Gate,43.77737,-79.3144999
21,8673,The West Mall At Civic Centre Crt South Side,43.64165,-79.5658
22,4643,Steeles Ave West At Islington Ave,43.76415,-79.5749799
23,7569,Brookmere Rd At Kipling Ave,43.72825,-79.5744099
24,15462,Distillery Loop,43.6508599,-79.35682
25,4571,Roncesvalles Ave At Fermanagh Ave,43.64617,-79.44892
26,7326,Sherbourne St At Maple Ave,43.6748199,-79.37762
27,6590,Middlefield Rd At Nashdene Rd,43.8174399,-79.26107
28,0001,Alness St At Dolomite Dr,43.7793899,-79.4754099
29,7700,Ellesmere Rd At Military Trail (West),43.77989,-79.2169999
30,1888,Dawes Rd At Dentonia Park Ave,43.69188,-79.29696
31,1046,Ellesmere Rd At Gander Dr East Side,43.7775599,-79.22621
32,11272,Humber College Blvd At Highway 27 West Side,43.7303499,-79.60233
33,3748,Humber Blvd At Louvain St,43.68089,-79.4819599
34,9040,Yonge St At Rosehill Ave,43.6861299,-79.3931799
35,4598,Sheppard Ave West At William R Allen Rd West Side,43.7502499,-79.4639
36,11992,Strachan Ave At Fleet St,43.63651,-79.40987
37,1332,Midland Ave At Wolfe Ave,43.72705,-79.25485
38,10605,900 York Mills Rd,43.7552299,-79.35026
39,3197,Woodbine Ave At Barker Ave South Side,43.6938999,-79.31644
40,15619,Ian Macdonald Blvd At Shoreham Dr South Side,43.77214,-79.5114
41,14957,Opposite 1103 Leslie St,43.7210499,-79.34975
42,12054,Progress Ave At Sheppard Ave East,43.7944099,-79.2347699
43,4821,Brimley Rd At Finch Ave East,43.80535,-79.27704
44,10832,3450 McNicoll Ave,43.8222799,-79.25696
45,14610,Industry St At Ray Ave North Side,43.6928599,-79.49172
46,9355,Steeles Ave East At Birchmount Rd,43.8215799,-79.3167
47,8465,Victoria Park Ave At Gordon Baker Rd,43.8107599,-79.3393799
48,9304,Attwell Dr At McLachlan Dr,43.6936599,-79.5887599
49,14540,Atlantic Ave At King St West,43.6399099,-79.42107
50,11552,Newgale Gate At Finchdene Sq West Side,43.8188799,-79.2381
51,2890,McNicoll Ave At Innislawn Rd,43.8075099,-79.31633
52,7807,Harbord St At Crawford St,43.6593599,-79.42058
53,5014,Dundas St West At The East Mall Cres West Side,43.63023,-79.5513799
54,6206,The Westway At Wincott Dr,43.68752,-79.5495799
55,4242,Kingston Rd At McNab Blvd,43.7289599,-79.22829
56,6794,Prince Edward Dr South At Sunnylea Ave West,43.64165,-79.50257
57,6341,Davean Dr At Bannatyne Dr,43.76042,-79.3686099
58,10150,Brimley Rd At Progress Ave,43.7754999,-79.2634199
59,4100,Kennedy Rd At Marilyn Ave North Side,43.78749,-79.29002
60,2361,Eglinton Ave West At Hilltop Rd,43.7006499,-79.42744
61,6753,Pharmacy Ave At Steeles Ave East South Side,43.81629,-79.33639
62,6328,Craigton Dr At Pharmacy Ave West Side,43.7272099,-79.29861
63,1417,O'Connor Dr At Milton Rd,43.6970499,-79.33229
64,5289,Lawrence Ave East At McCowan Rd Westside Scarborough General,43.7554399,-79.24665
65,5145,Laird Dr At McRae Dr,43.7105299,-79.3636699
66,15896,Eglinton Ave East At Midland Ave East Side,43.7345099,-79.25765
67,6390,Felmington Rd At Ranee Ave South Side,43.7228899,-79.44857
68,6869,The Queensway At Algie Ave,43.61884,-79.5369499
69,6689,Pharmacy Ave At Denton Ave North Side,43.6944799,-79.2841799
70,2596,Finch Ave West At Duncanwoods Dr,43.74896,-79.5574799
71,7566,Brookbanks Dr At Valley Woods Rd,43.75216,-79.3319699
72,6984,Royal York Rd At Coney Rd,43.63409,-79.50595
73,1423,O'Connor Dr At Warland Ave,43.6941199,-79.34602
74,7885,Keele St At Dovehouse Ave South Side,43.74936,-79.48763
75,5734,Midland Ave At Progress Ave,43.7731599,-79.2732199
76,9108,Sherway Gardens Rd At Sherway Gate (Mall) West Side,43.6100199,-79.55823
77,6733,Pharmacy Ave At Opposite Walkway To Ecclesfield Dr,43.8088899,-79.3330299
78,7038,Royal York Rd At Weston Wood Rd North Side,43.6921,-79.5308
79,3512,Dundas St West At Old Dundas St West Side,43.6619,-79.5074899
80,5735,Midland Ave At Prudential Dr,43.7497499,-79.2647
81,8710,Weston Rd At Coronado Crt,43.7403699,-79.5398999
82,6205,The Westway At Wincott Dr East Side,43.6873799,-79.5494
83,0492,Bloor St West At Bathurst St,43.66521,-79.4110799
84,8093,Sheppard Ave East At Yonge St East Side,43.76163,-79.4098399
85,14061,Westwood Square Bus Terminal At Morning Star Dr,43.7217299,-79.64071
86,6585,Middlefield Rd At Finch Ave East,43.8097399,-79.25742
87,4748,6355 Airport Rd,43.69109,-79.62516
88,14529,Torbarrie Rd At Judy Sgro Ave,43.7274,-79.5235
89,5175,2155 Lake Shore Blvd West,43.6257099,-79.47974
90,4208,Kingston Rd At Birchmount Rd,43.6932099,-79.26226
91,4409,Lansdowne Ave At Tycos Dr,43.7041899,-79.4603299
92,14189,Bombay Loop At Avenue Rd,43.7436099,-79.42418
93,3377,Brooklawn Ave At Barkdene Hills,43.71686,-79.2338
94,10836,Passmore Ave At Dynamic Dr,43.8297699,-79.2539
95,9636,Brimley Rd At Anson Ave,43.7243499,-79.2427899
96,9162,Leslie St At Old Cummer Ave,43.7940299,-79.3690899
97,8182,St Clair Ave West At Russell Hill Rd West Side,43.68526,-79.4083899
98,5921,O'Connor Dr At Binswood Ave East Side,43.6985699,-79.32516
99,9749,Heathrow Dr At Jane St East Side,43.72494,-79.5090499
100,4568,Roncesvalles Ave At Boustead Ave North Side,43.65317,-79.45155
101,6406,Grantbrook St At Blake Ave North Side,43.7799899,-79.4325999
102,8807,Willowdale Ave At Hollywood Ave South Side,43.76779,-79.40138
103,0327,Bayview Ave At York Rd South Side,43.74581,-79.38384
104,12023,McNicoll Ave At McCowan Rd,43.8178299,-79.27221
105,15627,Chesswood Dr At Champagne Dr South Side,43.7638899,-79.47649
106,14633,Don Mills Station,43.7762199,-79.34705
107,9357,Steeles Ave East At Warden Ave,43.81985,-79.3241199
108,8145,St Clair Ave East At Welland Ave,43.69108,-79.3797199
109,1216,Lankin Blvd At O'Connor Dr,43.69736,-79.33042
110,15620,Shoreham Dr At Shoreham Crt West Side,43.76916,-79.5192599
111,11052,Old Dundas St At Varsity Rd West Side,43.6642299,-79.5023
112,3270,Albion Rd At Finch Ave West,43.74106,-79.58958
113,1475,Rathburn Rd At Elmcrest Rd,43.64767,-79.5866699
114,7024,Royal York Rd At Romney Rd,43.6691599,-79.5208499
115,12521,Islington Ave At Finch Ave West South Side,43.7457699,-79.56875
116,11549,Finchdene Sq At Torham Pl,43.8195299,-79.2330899
117,5154,Lake Shore Blvd West At Fifteenth St,43.59867,-79.5143999
118,3789,Islington Ave At Fairway Rd,43.6549699,-79.5280399
119,3636,Gateway Blvd (South Side) At Grenoble Dr (South Side),43.71166,-79.33013
120,4069,900 Kennedy Rd,43.7399599,-79.2712899
121,10514,3507 Ellesmere Rd,43.78871,-79.1791399
122,6706,Pharmacy Ave At St Bedes Rd,43.70469,-79.2888
123,0845,College St At St George St,43.6587999,-79.39574
124,7136,Sheppard Ave East At Opposite Walkway To Hutcherson Sq,43.79751,-79.2200599
125,0362,Bellamy Rd North At Lawrence Ave East,43.7579099,-79.2354699
126,9667,Brimley Rd At Danjohn Cres (North) South Side,43.81287,-79.28065
127,4003,Keele St At Keelegate Dr,43.7328299,-79.4833799
128,4838,Brimorton Dr At Dalehurst Ave,43.77089,-79.2142099
129,0610,240 Bridgeland Ave,43.7245099,-79.46828
130,0938,Davenport Rd At Dufferin St,43.67309,-79.4407799
131,0510,Bloor St West At The East Mall,43.6367499,-79.55681
132,9962,Crosby Ave At Warren Cres,43.6617,-79.5000899
133,6658,Pharmacy Ave At Albion Ave,43.6957,-79.28492
134,5542,Maple Leaf Dr At Bourdon Ave,43.71106,-79.4963599
135,14803,Wilson Station,43.73446,-79.45074
136,2439,Evans Ave At Eastwick Rd,43.61762,-79.5155199
137,6562,McNicoll Ave At Tiffield Rd East Side,43.8208599,-79.25995
138,1236,Lawrence Ave West At Yonge St (Lawrence Station),43.72496,-79.4023999
139,3198,Woodbine Ave At Cosburn Ave,43.6963,-79.31725
140,7316,Sherbourne St At Front St East,43.65022,-79.36769
141,9129,1183 Finch Ave West,43.7651099,-79.48303
142,11248,Raab Blvd At Hospital Rd West Side (K & L Wings),43.7226399,-79.37596
143,8108,Sloane Ave At Kenewen Crt,43.73414,-79.31131
144,3839,Islington Ave At St Andrews Blvd,43.70143,-79.54883
145,14813,York Mills Station,43.7453099,-79.40602
146,8259,4545 Steeles Ave West,43.7718999,-79.53807
147,4322,Kipling Ave At Hinton Rd,43.7257099,-79.5732499
148,3445,470 Coronation Dr,43.7645399,-79.16898
149,15193,Tapscott Rd At Select Ave,43.8335199,-79.24683
150,14677,Eglinton West Station,43.69961,-79.4364799
151,2148,Dundas St West At The East Mall Cres,43.63037,-79.5491699
152,11541,John Garland Blvd At Jamestown Cres (East),43.7341899,-79.58249
153,11926,Erindale Ave At Broadview Ave East Side,43.6773799,-79.35822
154,14357,70 Island Rd,43.7974799,-79.14105
155,8350,Thorncliffe Park Dr At Milepost Pl,43.7032999,-79.3469299
156,9568,Nugget Ave At Transfer Pl,43.7978999,-79.24452
157,14690,Finch Station,43.7811099,-79.41506
158,3871,Jane St At Chalkfarm Dr (South) South Side,43.7246299,-79.5096899
159,4509,Old Weston Rd At St Clair Ave West North Side,43.6739499,-79.46306
160,8183,St Clair Ave West At Silverthorn Ave,43.67433,-79.4598999
161,0611,55 Bridgeland Ave,43.7263399,-79.46027
162,7511,Barmac Dr At Ormont Dr,43.7644599,-79.5533799
163,7309,Sherbourne St At Bloor St East (Sherbourne Station),43.6721599,-79.3766499
164,10763,Dovercourt Rd At Geary Ave North Side,43.6710799,-79.43322
165,4331,Kipling Ave At Kidron Valley Dr,43.7560799,-79.5880599
166,15737,The Westway At Callowhill Dr East Side,43.6839999,-79.56382
167,7987,Moore Ave At Lumley Ave,43.69573,-79.3764599
168,0100,Bathurst St At Fort York Blvd,43.6389499,-79.4007699
169,14783,St Clair West Station,43.6843699,-79.41525
170,2300,Eglinton Ave East At Pharmacy Ave,43.7258599,-79.29717
171,6711,Pharmacy Ave At Huntingdale Blvd,43.79625,-79.32702
172,1863,Danforth Rd At Landry Ave,43.6947999,-79.27624
173,15670,Opposite 9690 Markham Rd,43.9022399,-79.2662999
174,0235,Bay St At Bloor St West (Bay Station),43.67001,-79.38972
175,15622,Canarctic Dr At Petrolia Rd,43.77616,-79.4891099
176,3522,Dundas St West At Scarlett Rd,43.66563,-79.4991099
177,14988,Staines Rd At Boulderbrook Dr,43.8330399,-79.2249599
178,8447,Victoria Park Ave At Dawes Rd South Side,43.7062099,-79.29498
179,4402,Lansdowne Ave At Dupont St,43.66687,-79.44661
180,1942,Don Mills Rd At Green Belt Dr North Side,43.7274899,-79.3406199
181,15069,1103 Leslie St,43.72073,-79.3495799
182,9159,1121 Leslie St,43.7223299,-79.34897
183,9383,Eglinton Ave West At Weston Rd,43.68671,-79.4899199
184,2675,Guildwood Pkwy At Chancery Lane,43.74836,-79.1957299
185,1329,Midland Ave At St Clair Ave East,43.71843,-79.25102
186,14771,Sheppard-Yonge Station,43.7618899,-79.41239
187,13642,Markham Rd At Robinson St,43.8777399,-79.2606899
188,8114,Sloane Ave At Wigmore Dr,43.7324699,-79.3104599
189,3685,Greenwood Ave At Queen St East,43.66448,-79.32543
190,1728,Bayview Ave At Millwood Rd,43.7041499,-79.37445
191,7095,Scarlett Rd At Lawrence Ave West South Side,43.69775,-79.5229
192,0942,Davenport Rd At Lansdowne Ave,43.6713999,-79.44881
193,4199,2665 Kingston Rd East Side,43.7159199,-79.24278
194,2003,Driftwood Ave At Jane St East Side,43.7659599,-79.51908
195,0071,Avenue Rd At St Clair Ave West,43.68674,-79.40173
196,13902,Sheppard Ave East At Opposite Walkway To Murison Blvd,43.8012799,-79.20352
197,11511,Murrary Ross Pkwy At Steeles Ave West South Side,43.7758399,-79.5169
198,1004,Dupont St At Dufferin St,43.66836,-79.43914
199,5805,Mt Pleasant Rd At Bowood Ave,43.7297199,-79.3981499
200,4918,Craigton Dr At Pharmacy Ave,43.7270799,-79.29843
201,14955,Finch Station,43.7804899,-79.41481
202,2569,Finch Ave East At Warden Ave,43.7965799,-79.31601
203,4764,Airport Rd At Northwest Dr,43.6989099,-79.63634
204,5711,Midland Ave At Kilcullen Castle Gate North Side,43.80993,-79.28999
205,1401,Neilson Rd At Sheppard Ave East,43.7982799,-79.2178899
206,5705,Midland Ave At Goodland Gate,43.77904,-79.27538
207,6278,Cactus Ave At Drewry Ave North Side,43.7844599,-79.43146
208,2406,Eglinton Ave West At Scarlett Rd,43.6837899,-79.51156
209,10631,North Queen St At Nova Rd,43.6162899,-79.5571399
210,11873,300 Atkinson Ave,43.8154799,-79.4436699
211,14760,Scarborough Centre Station,43.7741699,-79.25856
212,5112,Gulliver Rd At Culford Rd,43.6978399,-79.48373
213,0894,Danforth Ave At Hillingdon Ave,43.6837699,-79.32129
214,10002,McCowan Rd At 16th Ave,43.8850299,-79.2886999
215,14835,William R Allen Rd At Rimrock Rd,43.75799,-79.4651699
216,7655,Dufferin St At Martin Ross Ave,43.77528,-79.46857
217,15015,Morningstar Dr At Cambrett Dr,43.71728,-79.6452399
218,10447,2900 Jane St,43.75264,-79.51665
219,4531,Progress Ave At William Kitchen Rd West Side,43.7701599,-79.27927
220,8311,Steeles Ave West At Thurman Rd,43.7910599,-79.45274
221,4608,Spadina Rd At Burton Rd,43.6929899,-79.4145699
222,2121,Dundas St East At Munro St,43.6621599,-79.35283
223,14637,Broadview Station,43.6767699,-79.35845
224,5584,Markham Rd At Stevenwood Rd North Side,43.7559499,-79.2239799
225,8187,St Clair Ave West At Warren Rd East Side,43.68563,-79.4057799
226,15925,Danforth Ave At Dawes Rd,43.6892899,-79.29647
227,1416,O'Connor Dr At Milton Rd West Side,43.69722,-79.3323799
228,4141,King St East At Parliament St,43.6529099,-79.36302
229,8426,2793 Victoria Park Ave,43.7824199,-79.3262599
230,11695,Shaw St At King St West North Side,43.6417899,-79.41506
231,4793,Avenue Rd At Roselawn Ave South Side,43.7083899,-79.41047
232,4640,Steeles Ave East At Old Kennedy Rd,43.8254799,-79.29983
233,5776,Mortimer Ave At Donlands Ave,43.6874999,-79.34045
234,6760,Pharmacy Ave At Teesdale Place,43.69684,-79.28521
235,0913,Danforth Ave At Westlake Ave,43.6875899,-79.30487
236,15563,Wilson Station,43.7355399,-79.44901
237,1873,Davisville Ave At Forman Ave,43.70155,-79.3807399
238,5120,High Park Ave At Glenlake Ave,43.6572999,-79.4669499
239,5618,1330 Martin Grove Rd,43.71113,-79.57993
240,7199,Sheppard Ave East At Kingston Rd,43.79927,-79.14696
241,2817,Lawrence Ave East At Mildenhall Rd,43.7285099,-79.38636
242,10013,McCowan Rd At Denison St,43.8416499,-79.2781599
243,3948,Judson St At Horner Ave,43.6123499,-79.51501
244,1484,Rathburn Rd At Ivybridge Dr West Side,43.6485299,-79.58525
245,15641,King St West At University Ave West Side (St Andrew Station),43.64758,-79.3854299
246,3218,Yonge St At College St (College Station),43.6615099,-79.3832399
247,10292,Finchdeme Sq (East) At Torham Pl South Side,43.8194499,-79.23323
248,7616,Clayson Rd At Bartor Rd,43.7286099,-79.52582
249,14493,Bayview Ave At Nesbitt Dr,43.6941399,-79.36604
250,0870,Danforth Ave At Broadview Ave,43.67608,-79.3589599
251,13371,Queens Quay West At Bathurst St East Side Billy Bishop Airport,43.6360499,-79.39777
252,3816,Islington Ave At Milady Rd,43.75217,-79.56811
253,2763,Kennedy Rd At St Clair Ave East,43.71675,-79.26156
254,0408,Birchmount Rd At Exford Dr North Side,43.75492,-79.28771
255,2161,Dundas St West At Dufferin St,43.64968,-79.43131
256,14888,St Clair Ave West At Earlscourt Ave,43.67704,-79.4472399
257,4299,Kipling Ave At Bywood Dr,43.6570899,-79.54216
258,4400,Lansdowne Ave At Brandon Ave,43.66921,-79.44753
259,6661,Pharmacy Ave At Arnall Ave,43.80711,-79.332
260,2535,Finch Ave East At Midland Ave,43.80393,-79.2860799
261,3708,Horner Ave At Alderbrae Ave,43.6028299,-79.54064
262,2424,85 Emmett Ave,43.68726,-79.5063
263,8728,Weston Rd At Habitant Dr,43.7458499,-79.5408899
264,6746,Pharmacy Ave At Sheppard Ave East,43.7767199,-79.3180399
265,7978,Millwood Rd At McRae Dr South Side,43.70465,-79.3677
266,7390,Van Horne Ave At Houston Cres (West),43.7876299,-79.3476399
267,9664,100 Lesmill Rd,43.75889,-79.35721
268,4280,Kipling Ave At Jutland Rd North Side,43.6271699,-79.5290499
269,5134,Kipling Ave At Wingrove Hill South Side,43.6540199,-79.5407899
270,6384,Flemington Rd At Ranee Ave,43.72317,-79.44848
271,2729,Islington Ave At The Queensway,43.62381,-79.51502
272,4389,Kipling Ave At Widdicombe Hill Blvd,43.67887,-79.55149
273,5858,75 Norfinch Dr,43.75987,-79.52882
274,9054,Yonge St At St Edmunds Dr,43.72185,-79.40142
275,7410,Varna Dr At Rondale Blvd South Side,43.72122,-79.44106
276,6032,Rogers Rd At Nairn Ave,43.6840699,-79.45185
277,1827,Cummer Ave At Willowdale Ave,43.7887399,-79.40978
278,2234,Eglinton Ave East At Banff Rd,43.7099099,-79.38234
279,2724,Islington Ave At Kingsmoor Gate South Side,43.7403899,-79.5668999
280,0296,Bayview Ave At Foxwarren Dr,43.7704999,-79.3887899
281,8983,Yonge St At Elmhurst Ave,43.76336,-79.41148
282,5369,Lawrence Ave West At Englemount Ave East Side,43.7172799,-79.43806
283,15011,3701 Danforth Ave (Variety Village),43.6988399,-79.25868
284,8949,Yonge Blvd At Yonge St West Side,43.7343699,-79.40499
285,2218,The East Mall At Talgarth Rd,43.66265,-79.57068
286,6787,Prince Edward Dr South At Meadowvale Dr,43.64688,-79.50463
287,6349,Don Mills Rd At Sheppard Ave East North Side,43.7757899,-79.3471
288,2368,Eglinton Ave West At Keele St East Side,43.6903199,-79.47398
289,14702,Jane Station,43.6500399,-79.4836
290,7513,Arrow Rd At Bartor Rd North Side,43.73782,-79.52969
291,7527,Belfield Rd At Attwell Dr,43.69824,-79.5918099
292,5784,Mortimer Ave At Inwood Ave,43.6881499,-79.33746
293,11550,257 Finchdene Sq,43.8211099,-79.23489
294,0096,Bathurst St At Bloor St West,43.6650099,-79.4110599
295,0625,Brimley Rd At Eglinton Ave East North Side,43.7371599,-79.24825
296,7267,Sheppard Ave West At Beaman Rd East Side,43.76033,-79.4159599
297,1356,70 Milner Ave,43.78418,-79.2512799
298,2170,Dundas St West At Lansdowne Ave,43.6501099,-79.4401299
299,9254,Thirtieth St At Akron Rd,43.59992,-79.53165
300,0356,Bellamy Rd North At Farmbrook Rd,43.74957,-79.23219
301,5106,Gary Dr At Wendell Ave West Side,43.70985,-79.5245399
302,5871,Opposite 35 Oak St,43.7085999,-79.53004
303,11028,Finch Ave West At Islington Ave West Side,43.7462299,-79.56911
304,4989,Dixon Rd At Kelfield St,43.6900299,-79.57719
305,8524,Walsh Ave At Weston Rd,43.7171599,-79.5372199
306,2690,Guildwood Pkwy At Scarcliff Gardens,43.75132,-79.1829599
307,1922,Don Mills Rd At The Donway East (South) North Side,43.7326399,-79.3420299
308,2387,Eglinton Ave West At Northcliffe Blvd,43.6961599,-79.44778
309,8574,Warden Ave At Huntingwood Dr,43.7855799,-79.3111599
310,10575,900 The East Mall,43.6695699,-79.57244
311,4731,Wynford Dr At Wynford Heights Cres South Side,43.7262299,-79.3274899
312,0754,Carlton St At Jarvis St,43.6625099,-79.37657
313,9866,Sheffield St At Hafis Rd,43.70626,-79.47105
314,2760,Kennedy Rd At Merrian Rd,43.72738,-79.26576
315,10304,Dovercourt Rd At Hallam St,43.6670899,-79.4315599
316,2178,Dundas St West At Paulart Dr,43.63132,-79.5466299
317,10709,Atkinson Ave At Dundurn Cres (North) East Side,43.81813,-79.4465399
318,8279,Steeles Ave West At Hilda Ave,43.7958599,-79.4294
319,2629,Finch Ave West At Sentinel Rd,43.76119,-79.4997999
320,9066,Yonge St At Wilson Ave (York Mills Station),43.74429,-79.40696
321,9278,Drewry Ave At Bathurst St,43.7811599,-79.44451
322,0495,Bloor St West At Bedford Rd,43.6678999,-79.39756
323,14266,Staines Rd At Seasons Dr South Side,43.83015,-79.2236099
324,14767,Scarborough Centre Station,43.7744299,-79.2575
325,6226,Albion Rd At Arcot Blvd South Side,43.7264999,-79.5520199
326,2942,Morningside Ave At Ellesmere Rd,43.78519,-79.19311
327,10847,105 Ironside Cres,43.8286399,-79.24691
328,4375,Kipling Ave At St Andrews Blvd South Side,43.6982599,-79.5605799
329,5669,McCowan Rd At Hollyhedge Dr (North) South Side,43.7533099,-79.24471
330,5209,533 Lansdowne Ave,43.65568,-79.44177
331,8722,Weston Rd At Finch Ave West South Side,43.7516399,-79.54244
332,13708,Vanderhoof Ave At Thomas Elgie Dr,43.71357,-79.3559799
333,8448,Victoria Park Ave At Deanvar Ave South Side,43.7452399,-79.3110299
334,9821,Finch Ave West At Sentinel Rd East Side,43.7611099,-79.49923
335,9549,Milner Ave At Neilson Rd East Side,43.7955599,-79.21584
336,5338,Lawrence Ave West At Bathurst St West Side,43.7191999,-79.4305
337,1800,Coxwell Ave At Upper Gerrard St East,43.6750999,-79.3200899
338,8536,Warden Ave At Boem Ave,43.7481599,-79.29575
339,1940,Don Mills Rd At Graydon Hall Dr,43.76164,-79.34699
340,4329,Kipling Ave At John Garland Blvd North Side,43.7357799,-79.5782299
341,1171,Jane St At Colbeck St,43.65335,-79.48621
342,8287,Steeles Ave East At Jewell St,43.79997,-79.4116799
343,2787,Kingston Rd At Muir Dr West Side,43.7432399,-79.21249
344,8367,Three Valleys Dr At Laurentide Dr,43.7514899,-79.3363499
345,1056,Fisherville Rd At Bathurst St West Side,43.7902599,-79.44618
346,7622,Clayson Rd At Wilson Ave,43.7184699,-79.5234299
347,0310,Bayview Ave At Opposite Garnier Park,43.80093,-79.39569
348,11604,Middlefield Rd At Passmore Ave East Side,43.82746,-79.2643999
349,0339,130 Bellamy Rd North,43.7422199,-79.23035
350,2970,1415 Morningside Ave,43.81079,-79.20342
351,15731,Don Mills Rd At Eglinton Ave East,43.7190799,-79.3381699
352,13482,Lake Shore Blvd West At Thirty Ninth St West Side,43.5928199,-79.54122
353,14646,Davisville Station,43.6977999,-79.39701
354,6957,Rockcliffe Blvd At Corbett Ave North Side,43.67179,-79.48706
355,14737,Main Street Station,43.6890999,-79.30171
356,7974,Military Trail At Lash Crt,43.78348,-79.18179
357,11878,Transit Rd At Wilson Ave North Side,43.7347099,-79.45215
358,7554,Birchmount Rd At Mack Ave,43.70173,-79.26608
359,5442,Leslie St At Finch Ave East,43.7896599,-79.3677199
360,6963,Opposite 400 Rockcliffe Blvd (Rockcliffe Middle School),43.67474,-79.48836
361,14355,St Clair Ave West At Spadina Rd West Side,43.68454,-79.4116999
362,15675,Scarlett Rd At Hill Garden Rd,43.69611,-79.52073
363,11740,Birmingham St At Eighth St,43.60287,-79.5076599
364,14524,Torbarrie Rd At Joseph Griffith Lane South Side,43.72533,-79.52329
365,1029,Dupont St At Symington Ave,43.6656299,-79.45137
366,13346,Dawes Rd At Park Vista South Side,43.6979799,-79.2971899
367,12051,Progress Ave At Milner Business Crt,43.7883299,-79.2331899
368,14811,York Mills Station,43.7453399,-79.40642
369,6445,Huntingwood Dr At Garrybrook Dr,43.7891799,-79.30715
370,8690,Weston Rd At Burgundy Crt North Side,43.72929,-79.5359
371,1981,16 The Donway East - Opposite Don Mills Collegiate,43.7360499,-79.34064
372,1977,Don Mills Rd At Wynford Dr,43.7228499,-79.3393299
373,7298,Sheppard Ave West At Wilmington Ave,43.7528199,-79.45188
374,9375,Christie St At Davenport Rd,43.6757499,-79.4232599
375,0683,Burnhamthorpe Rd At Mulgrove Dr,43.64406,-79.5689699
376,10554,Warden Ave At Apple Creek Blvd,43.8600699,-79.3351599
377,15948,900 Passmore Ave,43.8331799,-79.23923
378,0060,Avenue Rd At Dunblaine Ave,43.73602,-79.42023
379,9236,Shorncliffe Ave At Newbridge Rd South Side,43.62582,-79.54217
380,15045,Jane St At Wright Ave,43.70068,-79.50305
381,1369,Opposite 44 Milner Ave,43.7849399,-79.2537199
382,1099,Gerrard St East At Marjory Ave,43.6688599,-79.33745
383,3295,Attwell Dr At Carlingview Dr,43.70323,-79.6031299
384,8650,Wellesworth Dr At Faversham Cres North Side,43.6587899,-79.5793899
385,2405,Eglinton Ave West At Russell Rd,43.6812299,-79.53262
386,5900,Oakwood Ave At Earlsdale Ave,43.6850999,-79.438
387,11074,263 Carrier Dr,43.7508799,-79.61425
388,14443,5910 Finch Ave East,43.81708,-79.2240799
389,16055,Weston Rd At Little Ave,43.7010099,-79.5196399
390,6181,The Westway At Brampton Rd West Side,43.6847499,-79.5613
391,8545,Warden Ave At Canadian Rd,43.7585999,-79.30025
392,0315,Bayview Ave At Ruddington Dr,43.7878899,-79.3925899
393,2240,Eglinton Ave East At Bayview Ave East Side,43.7111099,-79.37637
394,7333,Sherbourne St At Wellesley St East,43.66726,-79.37483
395,6245,Bannatyne Dr At Leslie St West Side,43.7586499,-79.36194
396,14810,York Mills Station,43.7452599,-79.40658
397,5128,Aukland Rd At Dundas St West North Side,43.63877,-79.53855
398,10661,South Kingsway At Ripley Ave,43.6366999,-79.4750199
399,6527,Toronto Zoo,43.8196099,-79.17988
400,5626,Martin Grove Rd At Longbourne Dr,43.6809399,-79.56623
401,0923,Danforth Ave At Warden Ave,43.69421,-79.2739799
402,14938,St Clair Ave West At Old Weston Rd West Side,43.67343,-79.4635799
403,0200,Bathurst St At Sheppard Ave West,43.7556399,-79.4386699
404,4689,Victoria Park Ave At Danforth Ave,43.6910799,-79.2881799
405,3296,452 Attwell Dr,43.70414,-79.6095299
406,4888,Church St At Weston Rd,43.70314,-79.5254099
407,9740,Barber Greene Rd At Don Mills Rd West Side,43.7276,-79.3415599
408,5746,Midland Ave At Stansbury Cres,43.7424299,-79.2613299
409,1644,The West Mall Cres At The West Mall,43.62709,-79.55967
410,5810,Mt Pleasant Rd At Davisville Ave,43.7002099,-79.3868
411,7214,Sheppard Ave East At Maris Shepway East Side,43.77192,-79.3608399
412,7250,Sheppard Ave East At Victoria Park Ave,43.7750399,-79.32329
413,2369,Eglinton Ave West At Keele St/Trethewey Dr,43.68998,-79.4752899
414,3422,4050 Chesswood Dr,43.7581699,-79.4771599
415,3176,Wilmington Ave At Codsell Ave,43.75493,-79.45352
416,1173,Jane St At Steeles Ave West South Side,43.7748899,-79.52186
417,1759,Broadview Ave At Langley Ave-Bridgepoint Health Ctr,43.66766,-79.35331
418,0576,Bloor St West At Riverside Dr (South) East Side,43.64767,-79.4877299
419,5032,East Ave At Maberley Cres (South),43.7825299,-79.1324599
420,3745,Hullmar Dr At Shoreham Dr,43.7671,-79.52859
421,5453,Leslie St At Lawrence Ave East North Side,43.7350499,-79.3559
422,7252,Sheppard Ave East At Gateforth Dr,43.7954599,-79.23055
423,6151,Uphill Ave At Woodward Ave,43.70956,-79.509
424,12135,Eglinton Ave West At Royal York Rd East Side,43.68228,-79.5260099
425,5880,Oakdale Rd At Eddystone Ave,43.7468099,-79.5264999
426,9034,Yonge St At Patricia Ave,43.78997,-79.41781
427,15437,400 Burnhamthorpe Rd,43.6469899,-79.55647
428,0701,Caledonia Rd At Bentworth Ave,43.7193799,-79.46844
429,8540,Warden Ave At Bridletown Cir (North) South Side,43.8011499,-79.3186999
430,1669,Yonge St At Chaplin Cres,43.69839,-79.39676
431,14846,Murray Ross Pkwy At Columbia Gate,43.76667,-79.4935799
432,4753,Airport Rd At Bresler Dr,43.68609,-79.6063999
433,7408,Varna Dr At Ranee Ave,43.7234799,-79.4453799
434,14804,Woodbine Station,43.6864399,-79.31247
435,0775,Christie St At Melita Ave,43.6734099,-79.4221199
436,9646,Brimley Rd At Minerva Ave,43.7227299,-79.2423499
437,5750,Opposite 3450 Midland Ave,43.8116999,-79.2907899
438,7696,Ellesmere Rd At Midland Ave,43.76772,-79.2714699
439,2351,Eglinton Ave West At Gardiner Rd,43.7020999,-79.41997
440,9156,Lawrence Ave East At Don Mills Rd,43.73693,-79.3438899
441,1254,Steeles Ave East Loop At Bayview Ave,43.8034299,-79.39734
442,5321,Lawrence Ave East At Townley Ave East Side,43.74261,-79.3069599
443,4489,Milvan Dr At Milwick Dr (South),43.75625,-79.5601999
444,11835,Vaughan Rd At Oakwood Ave East Side,43.6919799,-79.43982
445,15432,204 Staines Rd,43.8257299,-79.2203699
446,4419,Lawrence Ave East At Ling Rd,43.7689999,-79.18293
447,3600,Finch Ave West At Jane St West Side,43.7573099,-79.51868
448,0548,Bloor St West At Martin Grove Rd,43.6397699,-79.54493
449,7979,Millwood Rd At McRae Dr,43.7047999,-79.36785
450,0522,Bloor St West At High Park Ave,43.6536599,-79.4651
451,9503,Lawrence Ave East At Markham Rd,43.75963,-79.2255499
452,0641,Brimley Rd At Deerfield Rd,43.7455799,-79.2521599
453,1854,Danforth Rd At Marsh Rd,43.7118099,-79.2628599
454,0679,Burnhamthorpe Rd At Kipling Ave,43.65086,-79.53952
455,10517,Ellesmere Rd At Deep Dene Dr,43.7907499,-79.17042
456,6103,St Clair Ave East At Birchmount Rd East Side,43.7141799,-79.27053
457,7721,Ellesmere Rd At Wye Valley Rd,43.76496,-79.2841399
458,7630,Curity Ave At O'Connor Dr,43.7079699,-79.3113499
459,8086,Sentinel Rd At Hucknall Rd (North),43.75699,-79.49902
460,8817,Willowdale Ave At Otonabee Ave,43.7960499,-79.4132599
461,2597,Finch Ave West At Elana Dr,43.7566099,-79.52083
462,3481,111 Disco Rd (West Detention Centre),43.7002499,-79.599
463,8619,Warden Ave At Wayne Ave,43.7380699,-79.2918999
464,3325,Belfield Rd At Brockport Dr West Side,43.6989499,-79.58884
465,12176,Dufferin St At Finch Ave West South Side,43.7680099,-79.46694
466,8555,Warden Ave At Danforth Rd,43.6970199,-79.2746299
467,3903,Jane St At Heathrow Dr,43.7247999,-79.5094399
468,8913,Woodbine Ave At Cosburn Ave,43.69652,-79.31759
469,7723,Elmhurst Dr At Albion Rd West Side,43.72502,-79.5511899
470,14155,Markham Rd At Opposite Walkway To Clandfield St,43.85919,-79.2566
471,1351,130 Milner Ave,43.7856599,-79.24556
472,9109,Sherway Gardens Rd At Sherway Gate (Mall),43.6097899,-79.55802
473,8102,Signet Dr At Steeles Ave West,43.7706099,-79.5431199
474,0681,Burnhamthorpe Rd At Martin Grove Rd West Side,43.6487899,-79.54948
475,8835,Wilson Ave At Allard Ave,43.7380199,-79.4292999
476,7426,Victoria Park Ave At Sheppard Ave East,43.77551,-79.32332
477,7119,Senlac Rd At Finch Ave West South Side,43.7761699,-79.43022
478,6993,Royal York Rd At Eglinton Ave West,43.6820999,-79.5263099
479,2776,Kingston Rd At Elmer Ave,43.67554,-79.3060099
480,12050,McNicoll Ave At White Heather Blvd,43.8190299,-79.26739
481,6920,The Queensway At Stephen Dr,43.6305199,-79.48402
482,15926,Danforth Ave At Dawes Rd,43.6893099,-79.29716
483,0834,College St At Havelock St,43.65305,-79.4292699
484,15810,Major Mackenzie Dr East At Glenbourne Park Dr,43.89293,-79.3403499
485,1011,Dupont St At Howland Ave,43.6735699,-79.4119
486,4274,Kipling Ave At Advance Rd,43.6339299,-79.5321999
487,6845,Queen St West At Ohara Ave,43.64117,-79.4340599
488,0106,Bathurst St At Chabad Gate,43.79928,-79.44726
489,10124,Park Lawn Rd At Keywell Crt,43.6348199,-79.49295
490,7337,South Dr At May St,43.6777099,-79.37585
491,2219,The East Mall At Talgarth Rd,43.66253,-79.57045
492,9222,Sentinel Rd At Fredrick Mowat Lane,43.74593,-79.49238
493,2978,Overlea Blvd At Don Mills Rd West Side,43.7098099,-79.33539
494,4502,Old Weston Rd At Rockwell Ave,43.67646,-79.46376
495,8442,Victoria Park Ave At Craigton Dr,43.72655,-79.30328
496,4729,Opposite 100 Wynford Dr,43.72646,-79.3313799
497,6306,90 Commander Blvd,43.79373,-79.2662999
498,2755,Kennedy Rd At Corvette Ave,43.7253499,-79.2651599
499,16003,Bloor St East At Sherbourne St East Side,43.67241,-79.3762699
500,0042,Annette St At Willard Ave,43.6587699,-79.48556
501,4963,Danforth Rd At Seminole Ave,43.74792,-79.2446499
502,1612,Triton Rd At Brimley Rd,43.7736599,-79.26153
503,1891,Dawes Rd At Donora Dr South Side,43.7002099,-79.29708
504,6876,The Queensway At Canmotor Ave,43.62419,-79.5118199
505,15391,Castlemore Ave At Markham Rd West Side,43.9042999,-79.268
506,6829,Queen St West At Peter St,43.6492199,-79.39377
507,15711,Eglinton Ave West At Russell Hill Rd East Side,43.70313,-79.4151499
508,2584,Finch Ave West At Ardwick Blvd (West),43.7476,-79.5624699
509,6676,Pharmacy Ave At Chester Le Blvd (South),43.7964799,-79.3273699
510,3143,Trethewey Dr At Irving Rd,43.6923499,-79.47702
511,4511,Old Weston Rd At Turnberry Ave,43.6784599,-79.4649399
512,10143,Brimley Rd At Progress Ave,43.7751099,-79.2629099
513,1946,Don Mills Rd At Lawrence Ave East,43.7367999,-79.3431399
514,1596,Steeles Ave West At Petrolia Rd,43.7823999,-79.49022
515,5919,O'Connor Dr At Amsterdam Ave,43.71414,-79.3059599
516,2751,Kennedy Rd At Danforth Rd,43.7149899,-79.26106
517,9476,Bayview Ave At Parkview Ave,43.77621,-79.39031
518,7312,Sherbourne St At Dundas St East North Side,43.6587899,-79.3711299
519,4187,King St West At Strachan Ave,43.64194,-79.4120899
520,8490,Victoria Park Ave At Parkwoods Village Dr,43.75806,-79.31549
521,6543,Marlee Ave At Glengrove Ave North Side,43.7111599,-79.4445699
522,2960,Morningside Ave At Milner Ave,43.8004099,-79.19932
523,1101,Gerrard St East At Pape Ave,43.6682299,-79.34025
524,8048,68 Railside Rd,43.7379499,-79.32239
525,5151,Lake Shore Blvd West At Tenth St,43.6001599,-79.5085
526,7770,201 Garyray Dr,43.7694099,-79.53748
527,10904,Ellesmere Rd At Mirrow Crt,43.7872899,-79.18516
528,1084,Gerrard St East At Carlaw Ave,43.6677199,-79.3426
529,9786,Steeles Ave East At Fenton Rd,43.8273899,-79.29148
530,14697,Islington Station,43.6451599,-79.52484
531,8908,Woodbine Ave At Bracebridge Ave North Side,43.6979499,-79.31796
532,16045,Islington Station,43.6447399,-79.52464
533,4010,Keele St At Maple Leaf Dr,43.71468,-79.47925
534,6665,1235 Pharmacy Ave,43.7487099,-79.3067199
535,2087,Dufferin St At Samor Rd South Side,43.71788,-79.45567
536,2915,Midland Ave At Safari St,43.73116,-79.25679
537,8588,Warden Ave At Marble Arch Cres,43.73628,-79.29117
538,2407,Eglinton Ave West At Scarlett Rd,43.6841,-79.5112499
539,14398,3750 Midland Ave,43.8161799,-79.2930699
540,9466,Cosburn Ave At Linsmore Cres,43.6928499,-79.33424
541,3379,Brooklawn Ave At Kingston Rd,43.72179,-79.23596
542,2446,Evans Ave At Islington Ave West Side,43.6182299,-79.51288
543,7453,Windermere Place At Windermere Ave,43.6381399,-79.47108
544,7935,Lawson Rd At Wichey Rd,43.78889,-79.1440099
545,0132,Bathurst St At Elderwood Dr,43.69516,-79.42309
546,8037,Port Union Rd At Ravine Park Cres South Side,43.78781,-79.14024
547,3802,Islington Ave At Holgate St,43.6847399,-79.5412999
548,4429,22 Lepage Crt,43.75861,-79.4872599
549,5654,Martin Grove Rd At Waterbury Dr,43.6878399,-79.5693099
550,3899,Jane St At Grandravine Dr,43.7470099,-79.5149299
551,3477,150 Disco Rd,43.7010199,-79.60808
552,0157,Bathurst St At Invermay Ave,43.74162,-79.43517
553,6563,McNicoll Ave At Middlefield Rd,43.8205899,-79.2608499
554,3106,Sheppard Ave West At Bakersfield St Westside (Downsview Pk Stn),43.7543199,-79.48059
555,9837,Brenyon Way At Foregate Ave,43.80166,-79.20726
556,3062,Queen St East At Pape Ave,43.6614299,-79.33807
557,7282,Sheppard Ave West At Goddard St,43.75364,-79.4479399
558,2987,Overlea Blvd At William Morgan Dr,43.7078399,-79.34155
559,7445,Weston Rd At Knob Hill Dr,43.71086,-79.53477
560,4406,Lansdowne Ave At Paton Rd,43.6605399,-79.44345
561,2216,The East Mall At Rathburn Rd,43.65476,-79.564
562,13664,Markham Rd At High Glen Ave,43.8514899,-79.2547299
563,7435,Wasdale Cres At Rajah St East Side,43.7302899,-79.43775
564,7067,Runnymede Rd At Morningside Ave,43.6459499,-79.4742499
565,12165,Ellis Ave At Lake Shore Blvd West North Side,43.63681,-79.46556
566,0718,Caledonia Rd At Glencairn Ave,43.7048599,-79.4648999
567,4130,Kennedy Rd At Trojan Gate,43.8037599,-79.298
568,11606,Steeles Ave East At Middlefield Rd,43.83251,-79.2680999
569,6495,Kingston Rd At Morningside Ave,43.771,-79.1867399
570,8639,Wellesley St West At Yonge St,43.66481,-79.3847999
571,7772,Gentian Dr At Renforth Dr,43.6650099,-79.58541
572,5849,Newgale Gate At Finchdene Sq,43.81886,-79.2376799
573,14563,Westmore Dr At Finch Ave West,43.7348599,-79.6011799
574,9464,Cosburn Ave At Coxwell Ave,43.69422,-79.3278299
575,10037,3447 Kennedy Rd,43.8210599,-79.3056799
576,5344,Lawrence Ave West At Bolingbroke Rd,43.71513,-79.4492999
577,15417,Birchmount Rd At Rougeside Promenade South Side,43.85577,-79.3240899
578,11230,Concorde Pl At Concorde Gate South Side,43.7290899,-79.3285099
579,2570,Finch Ave East At Warden Ave,43.79697,-79.3154799
580,6434,Huntingwood Dr At Colinayre Cres,43.7947899,-79.29519
581,13361,Royal York Rd At Albani St,43.6043399,-79.4935099
582,5596,951 Martin Grove Rd,43.69512,-79.57235
583,6854,Queen St West At Strachan Ave,43.64524,-79.4133099
584,0067,Avenue Rd At Lonsdale Rd South Side,43.6902999,-79.40305
585,2712,Islington Ave At Albion Rd,43.7376999,-79.56569
586,0032,Annette St At Indian Road Cres,43.66368,-79.4612899
587,5929,O'Connor Dr At Glenwood Cres West Side,43.70232,-79.3163099
588,7180,Sheppard Ave East At Atrium Lane,43.8009,-79.15031
589,3393,Calvington Dr At Exbury Rd,43.7308399,-79.49544
590,7173,Sheppard Ave East At Conlins Rd East Side,43.8042499,-79.18926
591,0153,Bathurst St At Bridgman Ave,43.67499,-79.41499
592,7370,Stephen Dr At Berry Rd,43.6373799,-79.4870599
593,5225,Lansdowne Ave At Whytock Ave,43.6536099,-79.4409699
594,0524,Bloor St West At Old Mill Trail,43.64957,-79.4956599
595,7001,Royal York Rd At Hillside Ave,43.6101699,-79.49594
596,13368,Bathurst St At Queens Quay West North Side Billy Bishop Airport,43.6360031,-79.3988464
597,12024,McNicoll Ave At Boxdene Ave,43.8183099,-79.26985
598,11776,Parkside Dr At Geoffrey St,43.64655,-79.45682
599,14050,Dundas St West At Glenlake Ave,43.6600299,-79.4537899
600,15297,Old Mill Station,43.6503099,-79.49502
601,5945,O'Connor Dr At Woodvale Cres,43.6995199,-79.3216
602,6570,Meadowvale Rd At Kingston Rd,43.7888499,-79.1622499
603,13927,Pharmacy Ave At Dawes Rd North Side,43.7084,-79.29018
604,8802,Willowdale Ave At Empress Ave,43.7715899,-79.4029899
605,2819,Lawrence Ave East At Mt Pleasant Rd,43.72602,-79.3974099
606,3288,400 Alliance Ave,43.6776599,-79.48613
607,7305,Sherbourne St At Adelaide St East North Side,43.6525399,-79.36869
608,0451,Birchmount Rd At St Clair Ave East North Side,43.7146599,-79.27124
609,3921,Jane St At Sheppard Ave West,43.73951,-79.5134
610,13926,Eastern Ave At Leslie St East Side,43.66168,-79.3285699
611,11053,Lundy Ave At Warren Cres,43.66261,-79.5027
612,9971,Lawrence Ave East At Walkway To Ridgewood Rd,43.7862499,-79.12513
613,2501,Finch Ave East At Chartland Blvd,43.8044899,-79.28224
614,1598,Steeles Ave West At Tandem Rd,43.7827499,-79.4899
615,9008,Yonge St At Horsham Ave North Side,43.7755799,-79.4143299
616,2682,Guildwood Pkwy At Livingston Rd,43.74766,-79.1991399
617,4857,Carlaw Ave At Lake Shore Blvd East North Side,43.6555,-79.33767
618,2618,Finch Ave West At Milady Rd,43.7471599,-79.56453
619,2529,Finch Ave East At McCowan Rd,43.80823,-79.2662699
620,1515,Royal York Rd At Kingsgrove Blvd,43.6533899,-79.5139099
621,14603,Steeles Ave East At Marydale Ave,43.83606,-79.2541099
622,13363,Islington Ave At Bloor St West,43.6445,-79.52319
623,7802,Harbord St At Bathurst St,43.6616099,-79.40954
624,1263,Main St At Danforth Ave,43.6883,-79.30201
625,3169,The West Mall At Sherway Dr (Trillium Health Ctr South Stop),43.6094199,-79.55981
626,4840,Brimorton Dr At Mid Pines Rd,43.7712299,-79.21172
627,2883,McNicoll Ave At Clansman Blvd,43.80193,-79.36323
628,2107,Dufferin St At Wilson Ave South Side,43.7311299,-79.45878
629,2966,Morningside Avenue At Sheppard Ave East,43.80185,-79.19951
630,4122,Kennedy Rd At Sheppard Ave East,43.78343,-79.28853
631,8800,Willowdale Ave At Cummer Ave,43.7885399,-79.40976
632,7048,Runnymede Rd At Annette St,43.6601799,-79.4801299
633,3228,Yonge St At Elm St,43.65788,-79.38148
634,11547,Crow Trail At Baldoon Rd,43.8131999,-79.23208
635,8880,Wilson Ave At Ridge Rd East Side,43.7238899,-79.49379
636,1642,The West Mall Cres At Dundas St West South Side,43.6268799,-79.56213
637,16025,Bayview Ave At Front St East,43.6537299,-79.35385
638,4647,Symington Ave At Antler St,43.664,-79.45057
639,3282,Albion Rd At Westmore Dr East Side,43.7434499,-79.6033999
640,2880,McNicoll Ave At Brahms Ave,43.7996099,-79.3602099
641,3652,Glencairn Ave At Englemount Ave,43.71065,-79.4357299
642,14107,Staines Rd At Warbler Cir,43.82671,-79.22168
643,2070,Dufferin St At Lawrence Ave West,43.7142399,-79.4549199
644,8738,Weston Rd At Kenhar Dr South Side,43.76132,-79.54473
645,6702,Pharmacy Ave At Finch Ave East North Side,43.7950899,-79.32633
646,9842,Sewells Rd At Alford Cres,43.80918,-79.21395
647,14789,Warden Station,43.7109699,-79.27943
648,1626,673 Warden Ave,43.7056399,-79.2782299
649,3274,Albion Rd At Martin Grove Rd East Side,43.74165,-79.5933
650,7677,Ellesmere Rd At Bellamy Rd North,43.7745399,-79.24144
651,0772,Christie St At Essex St South Side,43.66813,-79.42026
652,6408,Grantbrook St At Charlton Blvd,43.7810599,-79.4327799
653,5546,Maple Leaf Dr At Liscombe Rd,43.7108,-79.4980699
654,7773,Gentian Dr At Sagamore Cres,43.6650099,-79.58484
655,2453,Evans Ave At Sheldon Ave,43.6113,-79.5458699
656,0727,Caledonia Rd At Kitchener Ave,43.6889,-79.46042
657,0730,Caledonia Rd At Lawrence Ave West,43.71166,-79.46672
658,11001,The Donway East At Dutch Myrtle Way,43.7408299,-79.34392
659,3659,Glencairn Ave At Haven Rd,43.7062099,-79.45811
660,2559,Finch Ave East At Scottfield Dr,43.8107,-79.2531899
661,10556,Warden Ave At Highway 7,43.8559099,-79.3341099
662,3380,Brooklawn Ave At Sloley Rd,43.7193899,-79.2347
663,0967,Donlands Ave At O'Connor Dr South Side,43.6942399,-79.34304
664,7330,Sherbourne St At Shuter St,43.65602,-79.36995
665,3641,Glencairn Ave At Bathurst St,43.7122,-79.4283699
666,0134,Bathurst St At Elm Ridge Dr,43.7053999,-79.4265399
667,3820,Islington Ave At New Toronto St South Side,43.60641,-79.5066999
668,5974,Ossington Ave At Hepbourne St,43.6598299,-79.4248599
669,7313,Sherbourne St At Dundas St East,43.6584799,-79.37117
670,14624,Don Mills Station,43.7760399,-79.34585
671,4459,Manse Rd At Deanscroft Sq North Side,43.76547,-79.17407
672,11928,Promenade Bus Terminal At Promenade Cir (Mall North Entrance),43.8092599,-79.4542
673,8576,Warden Ave At Hymus Rd,43.7197299,-79.28441
674,9400,Evans Ave At Islington Ave,43.61819,-79.51157
675,2895,McNicoll Ave At Mogul Dr,43.7997599,-79.35196
676,12032,McNicoll Ave At Bramblebrook Ave,43.8145399,-79.2863
677,10702,Weston Rd At Ormont Dr,43.7649599,-79.5455
678,5478,Leslie St At Southwell Dr North Side,43.7462599,-79.3583799
679,1328,419 Midland Ave North Side,43.7122899,-79.24858
680,8284,Steeles Ave West At Islington Ave East Side,43.7643299,-79.57411
681,7898,St Clair Ave West At Keele St,43.67238,-79.4677499
682,14761,Scarborough Centre Station,43.7743699,-79.25849
683,10844,Tapscott Rd At McNicoll Ave West Side,43.82566,-79.2442699
684,1719,Bayview Ave At Eglinton Ave East,43.71243,-79.37748
685,1540,Sheppard Ave East At Leona Dr,43.7627799,-79.40477
686,2460,Faywood Blvd At Almore Ave,43.7456299,-79.44899
687,4746,Airport Rd At American Dr North Side,43.6895499,-79.6219
688,6714,Pharmacy Ave At Innismore Cres,43.7359299,-79.3015599
689,4337,Kipling Ave At Longfield Rd,43.67368,-79.54948
690,6091,Sheppard Ave West At Weston Rd,43.7339199,-79.5379
691,7010,Royal York Rd At Melrose St South Side,43.6199199,-79.50002
692,3716,Horner Ave At Edilou Dr,43.6046799,-79.53151
693,2313,Eglinton Ave East At Sutherland Dr,43.7131999,-79.36698
694,6182,The Westway At Brampton Rd,43.6846399,-79.5611
695,0056,Avenue Rd At Cottingham St,43.67942,-79.39837
696,14430,Warden Ave At Clegg Rd,43.8537099,-79.33361
697,5677,McCowan Rd At St Andrews Rd,43.7600299,-79.2467099
698,3684,Greenwood Ave At Queen St East North Side,43.66471,-79.32533
699,9550,715 Milner Ave (Honda Plant-East Entrance),43.7967699,-79.20666
700,13455,Yonge St At Front St East,43.6467699,-79.3767699
701,8655,Westhumber Blvd At Ixworth Rd,43.7271899,-79.57743
702,6944,Rexdale Blvd At Kipling Ave,43.71146,-79.5671899
703,14990,Morningside Ave At Staines Rd North Side,43.8197299,-79.22187
704,8003,Old Kingston Rd At Morrish Rd,43.7830999,-79.17085
705,1235,Lawrence Ave East At Yonge St East Side,43.7250399,-79.40181
706,8178,St Clair Ave West At Oakwood Ave,43.67973,-79.4355099
707,6136,St Clair Ave East At Presley Ave,43.7105199,-79.28848
708,0752,Carlton St At Church St,43.66198,-79.3791899
709,2767,Kingston Rd At Beech Ave,43.6803099,-79.2905199
710,4298,Kipling Ave At Bywood Dr,43.6564799,-79.5415699
711,5783,Mortimer Ave At Inwood Ave West Side,43.68816,-79.3380899
712,15190,Exhibition Loop,43.63587,-79.4170499
713,11676,Lawrence Ave East At Birchmount Rd,43.74729,-79.2851299
714,14834,William R Allen Rd At Rimrock Rd,43.75757,-79.46476
715,7188,Sheppard Ave East At Havenview Rd,43.7915199,-79.24945
716,7113,Senlac Rd At Churchill Ave,43.7703999,-79.4276999
717,2492,Finch Ave East At Brahms Ave,43.79211,-79.3578999
718,7043,Royal York Rd At York View Dr,43.63092,-79.5046
719,2988,Overlea Blvd At East York Town Centre (East Side),43.7069699,-79.34522
720,7090,Scarlett Rd At Ellins Ave,43.6707099,-79.50263
721,7070,Runnymede Rd At St Johns Rd,43.6637,-79.48124
722,7406,Varna Dr At Tundra Lane,43.7192799,-79.4390999
723,3215,Yonge St At Carlton St (College Station),43.6614899,-79.383
724,1882,Davisville Ave At Yonge St East Side,43.6983199,-79.3962
725,2374,Eglinton Ave West At Lascelles Blvd East Side,43.7056399,-79.4032
726,2821,Lawrence Ave East At Tremont Cres (East),43.7355899,-79.35025
727,5280,Lawrence Ave East At Kennedy Rd West Side,43.7495099,-79.27563
728,0282,Bayview Ave At Byng Ave North Side,43.7822099,-79.3913799
729,5461,Leslie St At Nymark Ave,43.77821,-79.36515
730,3183,Wilmington Ave At Overbrook Pl,43.7628899,-79.4569899
731,2471,Faywood Blvd At Invermay Ave,43.7387799,-79.4472299
732,2311,Eglinton Ave East At Sloane Ave,43.72613,-79.31317
733,8868,Wilson Ave At Keele St,43.72643,-79.4823799
734,0910,Danforth Ave At Sibley Ave,43.69009,-79.2928099
735,5972,Ossington Ave At Harbord St,43.6583999,-79.4241599
736,2790,Kingston Rd At Rainsford Rd,43.6727599,-79.30913
737,0655,Broadview Ave At Browning Ave,43.68088,-79.35766
738,2874,1020 McNicoll Ave,43.8042999,-79.33571
739,2249,Eglinton Ave East At Birchmount Rd,43.72976,-79.2781399
740,10659,Finch Ave East At Milliken Blvd,43.8019699,-79.29414
741,11875,Weston Rd At Steeles Ave West,43.77013,-79.5463
742,15132,Coxwell Ave At Lower Gerrard St East South Side,43.6724899,-79.3192
743,6693,Pharmacy Ave At Dolphin Dr North Side,43.70033,-79.28672
744,6323,422 Consumers Rd,43.7708,-79.3269199
745,15044,The West Mall At Holiday Dr,43.6495299,-79.5688499
746,5348,Lawrence Ave West At Brookview Dr,43.71817,-79.4349599
747,3911,Jane St At Milo Park Gate,43.7659599,-79.51982
748,9608,Grangeway Ave At Progress Ave South Side,43.77598,-79.2505299
749,2835,Longbourne Dr At Martin Grove Rd West Side,43.6807999,-79.56662
750,3446,640 Coronation Dr,43.7664999,-79.15963
751,15950,The East Mall At Gibbs Rd,43.63852,-79.5573599
752,6831,Queen St West At Dovercourt Rd,43.64339,-79.4225299
753,2454,Evans Ave At Sherway Gate West Side,43.60902,-79.5569299
754,5868,Norfinch Dr At Walkway To Shoreham Dr,43.76645,-79.53039
755,10730,Victoria Park Ave At Cassandra Blvd,43.75444,-79.31419
756,2879,McNicoll Ave At Birchmount Rd,43.80846,-79.3114099
757,0165,Bathurst St At Lawrence Ave West,43.7191099,-79.4296099
758,8570,Warden Ave At Glen Springs Dr,43.8046699,-79.32035
759,14549,Finch Ave East At Neilson Rd,43.8161399,-79.22776
760,8633,Wellesley St West At Parliament Building,43.66321,-79.3918599
761,16034,St Matthews Rd At Gerrard St East,43.6649599,-79.35533
762,3711,Horner Ave At Beta St,43.6030399,-79.53896
763,9472,Ellesmere Rd At Conlins Rd,43.78802,-79.1829699
764,6961,Rockcliffe Blvd At Lambton Ave,43.68227,-79.49155
765,6830,Queen St West At Claremont St,43.64616,-79.4093999
766,4622,St Clair Ave East At Brimley Rd,43.7207499,-79.2416
767,11166,The Esplanade At Princess St,43.6496,-79.3652699
768,6463,Huntingwood Dr At St Crispins Dr,43.7920099,-79.2975
769,6979,Royal York Rd At Chapman Rd,43.68748,-79.5287
770,2222,The East Mall At West Deane Park Dr South Side,43.6590999,-79.5691299
771,9448,Donlands Ave At Pape Ave East Side,43.6969699,-79.3488099
772,2330,Eglinton Ave West At Municipal Dr (York Civic Centre),43.6897499,-79.47703
773,0210,Bathurst St At Tichester Rd South Side,43.68509,-79.41918
774,7456,Woodsworth Rd At Northey Dr (East),43.7646,-79.36527
775,3786,Islington Ave At Evans Ave South Side,43.6178699,-79.51112
776,0960,Donlands Ave At Cosburn Ave South Side,43.6906799,-79.3415899
777,5789,Mortimer Ave At Logan Ave,43.68495,-79.3518199
778,3875,Jane St At Courage Ave,43.74478,-79.5144
779,14656,Sheppard West Station,43.7489799,-79.46197
780,3818,Islington Ave At Millwick Dr,43.75996,-79.57156
781,1459,Queen'S Park Cres East At St Joseph St North Side,43.66527,-79.39123
782,9179,McNicoll Ave At Victoria Park Ave,43.8039199,-79.33663
783,4083,Kennedy Rd At Flora Dr,43.74814,-79.27437
784,8234,Steeles Ave East At Pharmacy Ave,43.8166299,-79.33683
785,2160,Dundas St West At Dufferin St,43.64959,-79.43156
786,1905,Denton Ave At Madelaine Ave,43.6935199,-79.28567
787,12138,Warden Ave At Roper Rd (North Commuter Parking Lot),43.7138799,-79.2816599
788,1722,Bayview Ave At Fleming Cres North Side,43.7071799,-79.3756099
789,9505,46 Norelco Dr,43.76584,-79.5341
790,7185,Sheppard Ave East At Greenbriar Rd,43.76856,-79.3801999
791,2355,Eglinton Ave West At Glen Cedar Rd,43.69973,-79.4311199
792,8300,100 Steeles Ave West,43.7971499,-79.4247
793,7969,Military Trail At Bobmar Rd,43.78266,-79.17699
794,7366,St Phillips Rd At Riverview Heights,43.7033099,-79.5319299
795,11699,10 Disco Rd,43.70187,-79.5926799
796,5838,Mt Pleasant Rd At Roslin Ave,43.7303199,-79.3982299
797,1866,Davisville Ave At Acacia Rd,43.6996499,-79.3898
798,2795,Kingston Rd At Scarborough Rd,43.6806099,-79.28706
799,15030,Dufferin St At Queen St West,43.64236,-79.42874
800,13561,Sheppard Ave East At Barberry Pl,43.76724,-79.3851099
801,13677,Sheppard Ave East At Bessarion Rd East Side (Bessarion Stn),43.7691799,-79.37608
802,3257,York Mills Rd At Fenn Ave,43.74693,-79.3890699
803,8018,Parkview Hill Cres At Aspen Ave (North) East Side,43.7043999,-79.32825
804,4269,Kingston Rd At Whitecap Blvd East Side,43.73432,-79.2217899
805,8594,Warden Ave At Opposite Walkway To Seagrave Cres,43.80916,-79.3224
806,4751,Airport Rd At Jetliner Rd East Side,43.6858099,-79.60625
807,6768,Prince Edward Dr At Bloor St West,43.64849,-79.50529
808,6401,Glen Rd At Elm Ave,43.6761499,-79.37519
809,1767,Broadview Ave At Withrow Ave,43.6698599,-79.3534299
810,7141,Sheppard Ave East At Allanford Rd East Side,43.78211,-79.2928799
811,5861,115 Norfinch Dr,43.76146,-79.52907
812,15745,Kingston Rd At St Clair Ave East,43.72219,-79.2361099
813,8377,Underhill Dr At Broadlands Blvd,43.7440299,-79.32601
814,6648,Parliament St At St James Ave,43.6697099,-79.3700499
815,4228,Kingston Rd At Glen Everest Rd,43.69787,-79.2566699
816,14157,7675 Markham Rd,43.8532299,-79.25473
817,5612,Martin Grove Rd At Eglinton Ave West,43.6742199,-79.56284
818,14745,Ossington Station,43.6623399,-79.42661
819,4738,York Gate Blvd At Jane St,43.76178,-79.51908
820,4090,Kennedy Rd At Huntingwood Dr,43.79502,-79.2932
821,14794,Warden Station,43.7110099,-79.27987
822,4660,Tapscott Rd At McLevin Ave,43.80491,-79.22574
823,0014,Anglesey Blvd At Pinehurst Cres East Side,43.6631,-79.5243699
824,6551,Marlee Ave At Roselawn Ave,43.70231,-79.4412
825,5450,Leslie St At Esther Shiner Blvd North York General Hospital,43.76922,-79.36404
826,12065,Milner Ave At Cinemart Dr,43.7976,-79.2044199
827,7964,McRae Dr At Sutherland Dr,43.7084199,-79.36551
828,8306,Steeles Ave West At Signet Dr,43.7707599,-79.54357
829,3870,Jane St At Chalkfarm Dr (North) South Side,43.7289299,-79.5107899
830,8846,Wilson Ave At Clyde Ave West Side,43.7387399,-79.42705
831,6575,Meadowvale Rd At Sheppard Ave East,43.80858,-79.1710499
832,8760,Weston Rd At Ray Ave,43.68866,-79.49449
833,0207,Bathurst St At Steeles Ave West South Side,43.7914699,-79.4456
834,4910,Coxwell Ave At Plains Rd,43.6956999,-79.3285299
835,4592,Sheppard Ave East At Malvern St,43.79479,-79.2348199
836,8886,Wilson Ave At Wendell Ave,43.71664,-79.52723
837,0268,Bay St At Wellesley St West,43.6642499,-79.3869999
838,6006,Progress Ave At Estate Dr (West),43.78104,-79.2377499
839,1443,Park St At Atlee Ave,43.71133,-79.2509499
840,3344,Kingston Rd At Victoria Park Ave East Side,43.6807699,-79.28358
841,12816,Steeles Ave East At Don Mills East Side,43.8112199,-79.36011
842,0183,6101 Bathurst St,43.7874399,-79.4462399
843,15894,344 Rathburn Rd At Walkway To Merrygale Crescent,43.6562,-79.5593899
844,9596,120 McLevin Ave,43.80192,-79.2351199
845,0378,Birchmount Rd At Bay Mills Blvd,43.7837,-79.29955
846,6773,Prince Edward Dr South At Edgemore Dr North Side,43.6455299,-79.5040199
847,5480,Leslie St At Steeles Ave East,43.8081499,-79.3722499
848,6868,The Queensway At Algie Ave,43.6185299,-79.5371
849,10149,Brimley Rd At Grittani Lane South Side,43.7808299,-79.2654999
850,3987,Keele St At Falstaff Ave South Side,43.72026,-79.48079
851,11587,Sherway Gardens Rd At Sherway Gate Mall),43.6098499,-79.55777
852,5799,Mortimer Ave At Woodycrest Ave,43.6866899,-79.34424
853,11948,Sunrise Ave At O'Connor Dr,43.71918,-79.3036599
854,8596,Warden Ave At Murray Glen Dr,43.7561699,-79.2992299
855,2543,Finch Ave East At Ravel Rd East Side,43.7902999,-79.36514
856,1745,The Bridle Path At Lawrence Ave East South Side,43.73307,-79.36455
857,8659,211 The West Mall,43.63007,-79.55934
858,0350,Bellamy Rd North At Eastpark Blvd South Side,43.7553299,-79.23495
859,2035,Dufferin St At Croatia St South Side,43.6580399,-79.43474
860,2422,Eglinton Ave West At Wincott Dr,43.6786699,-79.54474
861,0582,Bloor St West At Shaver Ave North,43.63918,-79.5475299
862,1149,Howard Park Ave At Dundas St West,43.6519699,-79.44833
863,11145,Leslie St At Eastern Ave,43.66164,-79.32962
864,4080,Kennedy Rd At Ellesmere Rd,43.766,-79.2812999
865,2265,Eglinton Ave East At Don Valley Pkwy East Side,43.7237299,-79.32844
866,1330,Midland Ave At St Clair Ave East North Side,43.7193,-79.25136
867,4969,Danforth Rd At Wetherby Dr,43.73956,-79.2456299
868,0384,Birchmount Rd At Bonniewood Rd,43.7276,-79.27691
869,8573,Warden Ave At Huntingwood Dr,43.7853399,-79.3107299
870,0868,Crow Trail At McGinty Pl,43.8135799,-79.2284
871,0770,Christie St At Dupont St,43.6714999,-79.4213899
872,11252,Passmore Ave At Silverstar Blvd,43.8201099,-79.2978
873,1980,Don Mills Rd At York Mills Rd,43.75604,-79.34724
874,5114,Gulliver Rd At Keele St West Side,43.6992099,-79.47658
875,3328,Belfield Rd At C.n. East Spur,43.7014699,-79.57797
876,6715,Pharmacy Ave At Innismore Cres,43.73621,-79.30188
877,6110,St Clair Ave East At Hodder St,43.70662,-79.3079099
878,7110,Senlac Rd At Burnett Ave,43.7624099,-79.4241099
879,2198,615 The East Mall,43.6570299,-79.56676
880,2436,Evans Ave At The East Mall,43.61172,-79.5439799
881,15791,Cosburn Ave At Donlands Ave,43.6909199,-79.34178
882,6649,Parliament St At St James Ave South Side,43.6696499,-79.3702699
883,0292,Bayview Ave At Finch Ave East North Side,43.7856099,-79.39214
884,7215,Sheppard Ave East At Maris Shepway,43.7721199,-79.3615
885,1482,Rathburn Rd At Islington Ave West Side,43.6623599,-79.53174
886,9421,Bathurst St At Clark Ave West,43.80332,-79.44821
887,0179,Bathurst St At Neptune Dr,43.7316199,-79.4327199
888,1853,Danforth Rd At Mack Ave,43.7002599,-79.2728199
889,0367,Bellamy Rd North At Northleigh Dr,43.7697099,-79.2401599
890,4062,Kennedy Rd At Antrim Cres South Side,43.77133,-79.28329
891,1113,Gerrard St East At Beaton Ave,43.67605,-79.3170899
892,4205,Kingston Rd At Birchcliff Ave,43.6913399,-79.26481
893,15225,Bathurst St At Niagara St,43.6420299,-79.40198
894,8059,Railside Rd (West) At Lawrence Ave East South Side,43.7402,-79.3246099
895,14339,Markham Rd At Bur Oak Ave,43.90003,-79.26577
896,8423,Vaughan Rd At Winona Dr West Side,43.69028,-79.43633
897,12093,McCowan Rd At Bridlegrove Dr North Side,43.73466,-79.2363
898,1987,The Donway West At Don Mills Rd,43.74069,-79.34472
899,1312,McCowan Rd At Pitfield Rd,43.7874899,-79.25751
900,0902,Danforth Ave At Monarch Park Ave,43.6824799,-79.32727
901,15784,Finch Ave West At Ancona St East Side,43.77466,-79.4380599
902,12175,Royal York Rd At Eglinton Ave West South Side,43.6816999,-79.52648
903,0022,Annette St At Clendenan Ave,43.6623199,-79.4721
904,9185,Park Lane Cir At Post Rd South Side,43.7366899,-79.3780499
905,2750,Kennedy Rd At Danforth Rd North Side,43.7155199,-79.2609699
906,16030,River St At Gerrard St East,43.6634899,-79.3590599
907,2041,Dufferin St At Dundas St West,43.64981,-79.43159
908,1126,Gerrard St East At Norwood Rd,43.6834599,-79.30273
909,4068,879 Kennedy Rd,43.73987,-79.271
910,0533,Bloor St West At The Kingsway,43.64991,-79.4994599
911,8556,Warden Ave At Danube Dr,43.7436499,-79.29422
912,8704,Weston Rd At Church St,43.70298,-79.5251
913,13633,Markham Rd At Elson St,43.8403399,-79.25167
914,4826,Brimley Rd At Huntingwood Dr,43.79864,-79.2736
915,10675,60 Southport St,43.63935,-79.47365
916,7394,Van Horne Ave At Lucifer Dr,43.78755,-79.3374799
917,8211,Steeles Ave East At Bayview Ave,43.80292,-79.3973499
918,3280,Albion Rd At Silverstone Dr,43.7430599,-79.5998399
919,12003,Moore Park Ave At Yonge St West Side,43.7937299,-79.41986
920,8723,Weston Rd At Finch Ave West,43.75179,-79.54216
921,9522,Opposite 4000 Victoria Park Ave,43.8135199,-79.3402299
922,6859,Queen St West At University Ave (Osgoode Station),43.65097,-79.3862599
923,3622,Finch Ave West At Wilmington Ave,43.77005,-79.4608299
924,3041,Queen St East At Church St,43.65327,-79.3755199
925,3174,Willowridge Rd At Richgrove Dr,43.6757499,-79.5686
926,10435,McCowan Rd At Raymerville Dr (South),43.87681,-79.28668
927,4871,Chisholm Ave At Crewe Ave,43.69428,-79.30583
928,3129,Townsend Rd At Freshmeadow Dr,43.81012,-79.35687
929,6646,Parliament St At Shuter St,43.6568399,-79.36485
930,11079,145 Carrier Dr,43.74163,-79.61392
931,0887,Danforth Ave At Emmott Ave,43.6918599,-79.28509
932,15224,Bathurst St At Niagara St,43.6417799,-79.4017499
933,5382,Lawrence Ave West At Keele St,43.70901,-79.4776399
934,1108,Gerrard St East At St Matthews Rd,43.6649699,-79.3549
935,2658,Opposite 455 Gordon Baker Rd,43.8080899,-79.34583
936,7355,Spadina Ave At Queen St West North Side,43.6491799,-79.39649
937,2526,Finch Ave East At Markham Rd,43.8132,-79.2427599
938,11044,Kipling Ave At Finch Ave West,43.7434499,-79.5823999
939,8374,Tournament Dr At Upper Highland Cres,43.75087,-79.3984699
940,14254,Finch Ave West At Humber College Blvd East Side,43.7339099,-79.60934
941,4365,Kipling Ave At Rathburn Rd,43.65994,-79.5434
942,6439,Huntingwood Dr At Davisbrook Blvd,43.7865899,-79.30826
943,11094,Scarborough Golf Club Rd At Chandler Dr,43.7648299,-79.2165299
944,0694,Burnhamthorpe Rd At Shaver Ave North East Side,43.64814,-79.5513599
945,2061,Dufferin St At Hope St,43.6824399,-79.4449299
946,5249,Lawrence Ave East At Charlottetown Blvd West Side,43.77864,-79.1412999
947,8399,Upper Highland Cres At Owen Blvd,43.74835,-79.39749
948,4149,King St East At Sumach St,43.65566,-79.3583399
949,1399,Neilson Rd At Sewells Rd,43.8064199,-79.2183499
950,14545,58 Marine Parade Dr,43.6266899,-79.47685
951,8256,Steeles Ave East At Opposite Walkway To Whitman St,43.8005199,-79.40921
952,9441,Danforth Rd At Warden Ave,43.6976699,-79.2747899
953,3450,Coronation Dr At Chemical Crt,43.76564,-79.1631399
954,5938,O'Connor Dr At Taylor Dr,43.6991199,-79.32337
955,15129,Queens Quay East At Lower Jarvis St West Side,43.6438299,-79.36949
956,13888,Sheppard Ave East At Twyn Rivers Dr North Side,43.8092199,-79.16661
957,0951,Davenport Rd At Ossington Ave,43.6747799,-79.43063
958,7077,Scarlett Rd At Chapman Rd,43.6891,-79.51452
959,9016,Yonge St At King St West (King Station),43.64925,-79.37802
960,5226,Lansdowne Ave At Whytock Ave,43.65392,-79.44123
961,0115,Bathurst St At Danby Ave North Side,43.74925,-79.43682
962,15730,Sheppard Ave East At Wilfred Ave,43.7652199,-79.39456
963,1112,Gerrard St East At Woodfield Rd,43.67168,-79.3241699
964,6483,Kingston Rd At Beechgrove Dr,43.77616,-79.1737199
965,15013,Warden Ave At Firvalley Crt,43.7039699,-79.2775199
966,9341,Dufferin St At Dufferin Park Ave,43.65722,-79.43441
967,0575,Bloor St West At Riverside Dr (North),43.6480599,-79.4904899
968,9373,Christie St At Benson Ave,43.68009,-79.42517
969,7127,Senlac Rd At Sheppard Ave West,43.7593299,-79.4228099
970,3790,Islington Ave At Fenley Dr South Side,43.6928,-79.5449
971,8280,Steeles Ave West At Hilda Ave,43.79621,-79.4290699
972,7451,Windermere Ave At Coe Hill Dr,43.6413299,-79.4744599
973,7082,Scarlett Rd At East Dr,43.6767599,-79.50579
974,0740,Caledonia Rd At Raitherm Rd,43.7017599,-79.4641199
975,15343,Queen St East At Woodbine Ave,43.6688399,-79.30566
976,16004,Kipling Ave At Finch Ave West North Side,43.7436199,-79.58215
977,2685,Guildwood Pkwy At Prince Phillip Blvd East Side,43.74614,-79.2026499
978,9663,Duncan Mill Rd At Lesmill Rd,43.7608399,-79.35818
979,8229,Steeles Ave East At Leslie St,43.80869,-79.3724399
980,1393,Neilson Rd At Oakmeadow Blvd (North),43.79112,-79.2133
981,10282,Bay St At St Joseph St North Side,43.6660599,-79.3877399
982,14751,Royal York Station,43.6483399,-79.51118
983,12194,The Queensway At Sherway Gardens Mall (North Entrance),43.61368,-79.55974
984,1537,Sheppard Ave East At Dudley Ave,43.76357,-79.4020699
985,15629,660 Supertest Rd,43.7760499,-79.47837
986,9367,McCowan Rd At Sandhurst Cir (North),43.81177,-79.26936
987,15581,Pioneer Village Station,43.7767799,-79.50861
988,4982,Dixon Rd At Golfwood Heights,43.69872,-79.5397399
989,4484,Millwood Rd At Overlea Blvd,43.7018699,-79.35243
990,6635,Parliament St At Dundas St East,43.6595999,-79.3661599
991,2091,Dufferin St At Orfus Rd,43.72039,-79.45596
992,16032,Broadview Ave At Gerrard St East North Side,43.66577,-79.35265
993,9901,Islington Ave At Bloor St West North Side,43.6454099,-79.52359
994,5755,Morning Star Dr At Catalpa Rd,43.7197499,-79.6432
995,7883,Keele St At Annette St,43.6638599,-79.4640199
996,0980,Dufferin St At Finch Ave West,43.7687099,-79.4666399
997,14093,Aukland Rd At Dundas St West,43.63895,-79.53923
998,4120,Kennedy Rd At Reidmount Ave South Side,43.78843,-79.29074
999,7331,Sherbourne St At Shuter St,43.65642,-79.3703
1000,14486,Old Finch Ave At Harvest Moon Dr,43.82041,-79.2093399
1001,2749,Kennedy Rd At Craiglee Dr,43.7058399,-79.2571799
1002,8277,Steeles Ave West At Gaudaur Rd,43.76759,-79.5603099
1003,5791,Mortimer Ave At Pape Ave,43.6858499,-79.34727
1004,7752,Opposite 15 Fenmar Dr,43.7592799,-79.53551
1005,0364,Bellamy Rd North At Nelson St South Side,43.7462699,-79.2310999
1006,6583,Middlefield Rd At Compass Crt,43.8018899,-79.25669
1007,0663,Broadview Ave At Torrens Ave South Side,43.6900699,-79.3551799
1008,0070,Avenue Rd At St Clair Ave West North Side,43.6869499,-79.40145
1009,11364,Progress Ave At Markham Rd East Side,43.7819299,-79.23326
1010,11076,209 Carrier Dr,43.74723,-79.61511
1011,4962,Danforth Rd At Seminole Ave North Side,43.7479999,-79.24443
1012,0404,Birchmount Rd At Eglinton Ave East,43.7302299,-79.2780699
1013,6755,Pharmacy Ave At Stellarton Rd,43.71376,-79.29274
1014,7529,125 Bermondsey Rd,43.7181999,-79.3137299
1015,6975,Royal York Rd At Bloor St West South Side,43.6469699,-79.5112899
1016,12004,Hilda Ave At Steeles Ave West,43.7955999,-79.429
1017,8429,Victoria Park Ave At Amsterdam Ave South Side,43.71487,-79.29866
1018,7806,Harbord St At Crawford St,43.6591799,-79.42077
1019,15890,Ossington Ave At Argyle St North Side,43.6471699,-79.4198399
1020,9172,Birchmount Rd At Riseborough Ave (North),43.8268199,-79.3177
1021,12326,Clayson Rd At Bartor Rd (North) West Side,43.7286999,-79.52584
1022,2021,Dufferin St At Bowie Ave,43.6980199,-79.4512699
1023,5147,Laird Dr At Vanderhoof Ave,43.7120099,-79.36426
1024,6707,Pharmacy Ave At Glendinning Ave,43.8116,-79.33398
1025,8497,Victoria Park Ave At Sheppard Ave East,43.7750799,-79.3227199
1026,9880,Keele St At Victory Dr,43.7287099,-79.4826399
1027,4063,1400 Kennedy Rd,43.7627399,-79.2801399
1028,6271,Browns Line At Rimilton Ave,43.6037599,-79.5459599
1029,5812,Mt Pleasant Rd At Dinnick Cres,43.7229,-79.39585
1030,9105,Grandravine Dr At Futura Dr,43.7485499,-79.50705
1031,9908,Neilson Ave At Crow Trail North Side,43.8127599,-79.22578
1032,5445,Leslie St At Francine Dr,43.8047899,-79.3714099
1033,0856,Cosburn Ave At Broadview Ave East Side,43.68841,-79.3549299
1034,6734,Pharmacy Ave At Pachino Blvd South Side,43.76297,-79.31196
1035,8456,Victoria Park Ave At Ellesmere Rd North Side,43.7582399,-79.31521
1036,14535,120 Industry St,43.6939499,-79.49401
1037,0430,Birchmount Rd At Lawrence Ave East,43.7477599,-79.2850999
1038,0102,Bathurst St At Caribou Rd,43.7175299,-79.4292499
1039,6092,Sheppard Ave West At Yatescastle Dr,43.7404299,-79.50672
1040,11545,Crow Trail At Horseley Hill Dr,43.8094099,-79.23223
1041,4929,Culford Rd At Lawrence Ave West North Side,43.7068899,-79.48776
1042,14611,Morningside Ave At Danzig St,43.76499,-79.18506
1043,5119,High Park Ave At Dundas St West South Side,43.6651399,-79.47027
1044,1144,Highview Ave At Anneke Rd,43.70108,-79.2600199
1045,3929,Jane St At St Johns Rd,43.66204,-79.48977
1046,3924,Jane St At Spenvalley Dr,43.7411499,-79.51348
1047,0632,Brimley Rd At Gully Dr South Side,43.7434599,-79.2512899
1048,9127,Finch Ave East At Bayview Ave,43.7852199,-79.39175
1049,15849,Humber College Blvd At Finch Ave W,43.7335199,-79.6101199
1050,9907,York Mills Rd At Yonge St East Side,43.7441599,-79.40583
1051,2092,Dufferin St At Springhurst Ave,43.6350099,-79.4259299
1052,8258,2215 Steeles Ave West,43.78532,-79.4777999
1053,11348,Victoria Park Ave At Denton Ave,43.6926299,-79.2887699
1054,14645,Davisville Station,43.6976099,-79.3969099
1055,15530,Eglinton Ave West At Dynevor Rd,43.69534,-79.4515899
1056,8794,Willowdale Ave At Byng Ave,43.7786299,-79.40594
1057,1313,McCowan Rd At Progress Ave North Side,43.77664,-79.25286
1058,6615,122 Neptune Dr,43.73133,-79.4400099
1059,0702,Caledonia Rd At Bentworth Ave,43.7197099,-79.4687499
1060,9406,Front St West At Bay St East Side (Union Station),43.6459999,-79.37852
1061,8683,The West Mall At Rathburn Rd,43.6528,-79.57234
1062,15994,Trethewey Dr At Eglinton Ave West,43.69033,-79.47524
1063,4070,Kennedy Rd At Bellbrook Rd,43.7989499,-79.2949499
1064,0859,Cosburn Ave At Logan Ave,43.68843,-79.3533999
1065,9148,Keele St At Broadoaks Dr,43.75757,-79.48964
1066,0606,150 Bridgeland Ave,43.7254699,-79.46406
1067,8066,Renforth Dr At Convair Dr,43.67206,-79.59309
1068,3908,Jane St At Maple Leaf Dr,43.7091199,-79.5053099
1069,10707,Atkinson Ave At Rosedale Heights Dr (North),43.8174799,-79.45015
1070,14543,Lake Shore Blvd West At Brookers Lane,43.6269899,-79.47902
1071,11719,1155 Albion Rd,43.7375899,-79.5681999
1072,2947,Morningside Ave At Guildwood Pkwy,43.7533199,-79.1799499
1073,0050,Avenue Rd At Boswell Ave,43.67262,-79.39561
1074,14361,Manitoba Dr At Nova Scotia Ave,43.6352,-79.4188399
1075,7766,230 Ian Macdonald Blvd,43.77594,-79.5071499
1076,1472,Rathburn Rd At The East Mall East Side,43.655,-79.5636799
1077,8378,Underhill Dr At Brookbanks Dr South Side,43.7532199,-79.3275199
1078,4633,St Dennis Dr At Deauville Lane,43.7186799,-79.3304
1079,4075,Kennedy Rd At Cornwallis Dr North Side,43.7522099,-79.27568
1080,14812,York Mills Station,43.7453699,-79.40624
1081,2177,Dundas St West At Paulart Dr East Side,43.6310599,-79.54646
1082,6851,Queen St West At Shaw St,43.6447899,-79.41615
1083,5487,Leslie St At Elsa Vine Way South Side,43.7877299,-79.36759
1084,6090,Sheppard Ave West At Downsview Dells Park,43.7424699,-79.49651
1085,9244,Shorncliffe Ave At Lockport Ave,43.6276199,-79.5427399
1086,7311,Sherbourne St At Carlton St,43.6633799,-79.3732099
1087,4224,Kingston Rd At Fenwood Heights West Side,43.72738,-79.2300899
1088,6489,Lawson Rd At Highway 2a Overpass,43.7824899,-79.16655
1089,9285,Drewry Ave At Marthon Cres (East),43.7817899,-79.4411
1090,15393,Castlemore Ave At Mingay Ave,43.9018099,-79.27628
1091,4275,Kipling Ave At Albion Rd South Side,43.7390899,-79.58022
1092,9556,Opposite 715 Milner Ave (Honda Plant-East Entrance),43.7969799,-79.2063799
1093,4680,Tycos Dr At Caledonia Rd,43.70331,-79.4642799
1094,15147,Huntingwood Dr At Fairglen Ave West Side,43.78096,-79.3231799
1095,2592,Finch Ave West At Damascus Dr,43.7354199,-79.59786
1096,14691,Finch Station,43.7812699,-79.41513
1097,7254,Sheppard Ave East At Warden Ave,43.7785499,-79.30811
1098,4709,Washburn Way At Sheppard Ave East,43.7963099,-79.2276799
1099,2782,Kingston Rd At Lee Ave,43.67801,-79.3013099
1100,3915,Jane St At Pritchard Ave,43.6694399,-79.4926799
1101,4216,Kingston Rd At Claremore Ave,43.70416,-79.2528299
1102,2672,Grandravine Dr At Sentinel Rd,43.75178,-79.4955299
1103,9848,Brenyon Way At Wickson Trail South Side,43.8053599,-79.2112599
1104,3981,Keele St At Dovehouse Ave North Side,43.74987,-79.48749
1105,10238,Middlefield Rd At Newmill Gate,43.82478,-79.26373
1106,13423,Avon Loop At Weston Rd,43.6813699,-79.47684
1107,7692,Ellesmere Rd At Kennedy Rd,43.76602,-79.2807599
1108,2816,Lawrence Ave East At Leslie St,43.73439,-79.3561699
1109,11558,Kennedy Rd At McNicoll Ave,43.8129899,-79.3024399
1110,15825,West Toronto St At Keele St,43.6698699,-79.467
1111,9084,York Mills Rd At Scarsdale Rd,43.7532899,-79.35766
1112,6766,Pleasant View Dr At Brian Dr,43.7846099,-79.33311
1113,0695,Burnhamthorpe Rd At Shaver Ave North West Side,43.6482099,-79.55199
1114,4025,Keele St At Rustic Rd,43.7178099,-79.4799399
1115,11260,Concorde Pl At McDonalds Pl,43.72794,-79.3282899
1116,0509,Bloor St West At Eagle Rd East Side,43.6453899,-79.51975
1117,7634,Curity Ave At O'Connor Dr North Side,43.7081799,-79.3115
1118,15413,Birchmount Rd At Verdale Crossing,43.85157,-79.3252
1119,15277,Yonge Blvd At Brooke Ave,43.73568,-79.40901
1120,6899,The Queensway At Loma Rd,43.6250899,-79.50865
1121,1170,Jane St At Colbeck St North Side,43.65336,-79.48602
1122,0970,Donlands Ave At Sammon Ave,43.6857299,-79.3393799
1123,1874,Davisville Ave At Forman Ave,43.70172,-79.3804999
1124,10270,Linkwood Lane At Windy Golfway (South),43.7162599,-79.32495
1125,2993,Pape Ave At Floyd Ave,43.6874199,-79.3479599
1126,5458,Leslie St At Marowyne Dr,43.7750799,-79.3647999
1127,4245,Kingston Rd At Midland Ave West Side,43.7109699,-79.24851
1128,4399,Lansdowne Ave At Brandon Ave North Side,43.6692499,-79.44735
1129,8721,Weston Rd At Fenmar Dr South Side,43.7569199,-79.5437499
1130,4278,Kipling Ave At Rowntree Rd,43.75084,-79.58558
1131,4959,Danforth Rd At Neston Ave West Side,43.7331799,-79.24893
1132,11087,Carrier Dr At Dansk Crt,43.74383,-79.61455
1133,7995,Norelco Dr At Fenmar Dr,43.7601699,-79.5327699
1134,1660,Wilson Ave At King High Ave,43.7354099,-79.44295
1135,0366,Bellamy Rd North At Northleigh Dr North Side,43.7697999,-79.2399699
1136,4346,Kipling Ave At North Heights Rd,43.66486,-79.54558
1137,15541,480 Rathburn Rd,43.6523999,-79.57563
1138,5581,Markham Rd At Rochman Blvd South Side,43.76411,-79.2271
1139,15816,1189 Huntingwood Dr,43.79804,-79.27806
1140,3799,Islington Ave At Gosfield Gate South Side,43.72527,-79.56004
1141,0717,Caledonia Rd At Glencairn Ave,43.7044899,-79.4646499
1142,6436,Huntingwood Dr At Crockamhill Dr West Side,43.79738,-79.2821399
1143,8058,31 Railside Rd,43.7391399,-79.32076
1144,5472,Leslie St At Rippleton Rd,43.74269,-79.35795
1145,15337,Queen St East At Woodfield Rd,43.6653499,-79.32117
1146,3045,Queen St East At Coxwell Ave,43.6664299,-79.31645
1147,8541,Warden Ave At Bridletown Cir (North),43.80137,-79.31851
1148,4273,Kipling Ave At Six Point Rd,43.6339999,-79.5319299
1149,14352,St Clair Ave West At Dunvegan Rd West Side,43.68599,-79.4052199
1150,10794,Reddins Rd At Crosland Dr,43.76442,-79.3104499
1151,15049,Gary Dr At Portage Ave,43.7106399,-79.52104
1152,4998,585 Dixon Rd,43.69075,-79.5742599
1153,15500,Fort York Blvd At Fleet St,43.6365199,-79.40699
1154,3361,Brimley Rd At Kingston Rd North Side,43.7191899,-79.24066
1155,10769,Dovercourt Rd At Northumberland St,43.66228,-79.42975
1156,15353,King St West At Joe Shuster Way,43.6395899,-79.42372
1157,11233,Northover St At Giltspur Dr,43.73872,-79.50038
1158,10210,Fleet St At Bathurst St,43.6364699,-79.40013
1159,4350,Kipling Ave At Olivewood Rd,43.6353999,-79.5325499
1160,8876,Wilson Ave At Murray Rd,43.7297099,-79.4714
1161,8500,Victoria Park Ave At Sloane Ave,43.7388699,-79.30863
1162,0847,College St At University Ave (Queen'S Park Station),43.6596999,-79.39077
1163,9996,McCowan Rd At South Unionville Ave,43.86071,-79.28273
1164,3998,Keele St At Greenbrook Dr South Side,43.69681,-79.47546
1165,5823,Mt Pleasant Rd At Heath St East,43.6923,-79.38422
1166,12133,Eglinton Ave West At Renforth Dr,43.66676,-79.5874699
1167,9906,York Mills Rd At Yonge St,43.7444199,-79.40597
1168,1163,50 Cordova Ave,43.64775,-79.52432
1169,1000,Dupont St At Christie St,43.6715199,-79.42167
1170,1003,Dupont St At Dovercourt Rd,43.6697799,-79.43258
1171,6412,Grantbrook St At Finch Ave West,43.77643,-79.43186
1172,1094,Gerrard St East At Leslie St,43.66966,-79.3332599
1173,5276,Lawrence Ave East At Howden Rd,43.7469899,-79.28782
1174,5648,Martin Grove Rd At Smithfield Park,43.74848,-79.59725
1175,0577,Bloor St West At Riverview Gardens,43.6486899,-79.4854799
1176,5834,Mt Pleasant Rd At Merton St,43.6983999,-79.3866399
1177,0529,Bloor St West At Jane St,43.6494499,-79.48427
1178,3515,Dundas St West At Prince Edward Dr North,43.66081,-79.5102999
1179,5595,Martin Grove Rd At Walkway To 308 Silverstone Dr,43.7491899,-79.5978899
1180,2185,Dundas St West At Shaw St,43.6496999,-79.41849
1181,6530,Rouge Hill Go Station Loop At Lawrence Ave East,43.7809099,-79.12982
1182,13426,Prince Edward Dr At Berry Rd,43.6349799,-79.4996999
1183,0990,Dundas St West At Sterling Rd,43.6506799,-79.44278
1184,7503,Avoca Ave At Pleasant Blvd South Side,43.68853,-79.38935
1185,6330,Crescent Rd At Cluny Dr,43.6775299,-79.3861099
1186,8838,Wilson Ave At Avenue Rd,43.7400899,-79.42103
1187,0569,Bloor St West At Prince Edward Dr North West Side,43.6486299,-79.50603
1188,9407,1800 The Queensway,43.6141199,-79.5593799
1189,13917,Huntingwood Rd At Ridgecrest Dr,43.7846099,-79.31507
1190,1037,Eglinton Ave East At Midland Ave,43.73431,-79.2584699
1191,0899,Danforth Ave At Linnsmore Cres,43.6821299,-79.32968
1192,2152,Dundas St West At Brock Ave,43.6499399,-79.4354999
1193,2507,Finch Ave East At Dudley Ave,43.78093,-79.4098299
1194,14695,High Park Station,43.6539699,-79.46635
1195,2527,Finch Ave East At Maxome Ave East Side,43.7833499,-79.39881
1196,11394,Yonge St At York Mills Rd,43.74378,-79.40643
1197,8877,Wilson Ave At Northgate Dr,43.73018,-79.4682099
1198,11718,1180 Albion Rd,43.7378099,-79.56818
1199,7567,Brookbanks Dr At Valley Woods Rd,43.7522999,-79.33162
1200,4991,Dixon Rd At Kipling Ave,43.69449,-79.5583199
1201,1780,Cosburn Ave At Gledhill Ave,43.6970699,-79.3130699
1202,8435,Victoria Park Ave At Biscayne Blvd North Side,43.72943,-79.30447
1203,7265,Sheppard Ave West At Bathurst St,43.7555999,-79.43799
1204,2765,Kennedy Rd At Summer Dr South Side,43.72186,-79.26365
1205,0283,Bayview Ave At Byng Ave South Side,43.7816599,-79.3915499
1206,15631,Sheppard Ave West At Vitti St (Downsview Park Station),43.75417,-79.4804899
1207,0489,Bloor St West At Ashbourne Dr,43.64042,-79.5420199
1208,5023,Dundas St West At Prince Edward Dr North,43.66047,-79.5105599
1209,5674,McCowan Rd At Meldazy Dr (North) North Side,43.76357,-79.24811
1210,4432,Lepage Crt At Keele St,43.7581899,-79.48918
1211,3500,Dundas St West At Humberside Ave,43.6629499,-79.4562899
1212,15135,Guildwood Pkwy At Galloway Rd,43.74957,-79.1895599
1213,1406,O'Connor Dr At Athlone Rd West Side,43.6961199,-79.33738
1214,9890,Lawson Rd At Brumwell St,43.78834,-79.1473299
1215,4856,Carlaw Ave At Gerrard St East North Side,43.6681399,-79.34286
1216,4215,Kingston Rd At Chine Dr,43.7143,-79.2450999
1217,8862,Wilson Ave At Jane St,43.72107,-79.5083899
1218,10300,1300 Islington Ave,43.6498799,-79.5258299
1219,12934,Bayview Ave At Brenham Cres,43.79619,-79.39456
1220,7589,32 Carluke Cres,43.7608999,-79.39
1221,8685,451 West Mall,43.64678,-79.5677
1222,14297,Barkdene Hills At Larwood Blvd,43.7155899,-79.2377899
1223,9523,3900 Victoria Park Ave,43.8129099,-79.3402599
1224,15918,Village Green Sq At Metrogate Pk,43.7788099,-79.28189
1225,11560,Highland Creek Overpass At Kingston Rd,43.7842799,-79.1682799
1226,9217,Arleta Ave At Medal Lane,43.7475199,-79.50664
1227,3997,Keele St At Grandravine Dr,43.75226,-79.48831
1228,3966,Keele St At Greenbrook Dr,43.6969199,-79.4752399
1229,1426,112 Orfus Rd,43.7182099,-79.46622
1230,4235,Kingston Rd At Manderley Dr,43.68867,-79.2693699
1231,7121,Senlac Rd At Hounslow Ave North Side,43.77271,-79.42855
1232,1093,Gerrard St East At Jones Ave,43.66933,-79.3354199
1233,3219,Yonge St At Crescent Rd (Rosedale Station),43.6768199,-79.3893799
1234,10765,Dovercourt Rd At Geary Ave,43.6707899,-79.4332799
1235,0424,Birchmount Rd At Highgate Dr,43.82631,-79.3175899
1236,2518,Finch Ave East At Leslie St East Side,43.78987,-79.3670899
1237,15951,The East Mall At Gibbs Rd North Side,43.6386899,-79.55695
1238,3881,Jane St At Dundas St West South Side,43.6651899,-79.49109
1239,8592,Warden Ave At Metropolitan Rd South Side,43.7668199,-79.3028
1240,14632,Don Mills Station,43.7759899,-79.34697
1241,8839,Wilson Ave At Bathurst St East Side,43.7372999,-79.43323
1242,13699,Opposite 327 Dixon Rd,43.6952399,-79.55521
1243,2429,620 Evans Ave,43.61045,-79.5504499
1244,8927,Woodbine Ave At O'Connor Dr South Side,43.6994599,-79.31888
1245,2088,Dufferin St At Shanly St,43.66286,-79.43655
1246,3091,Queen St West At York St,43.6510699,-79.38509
1247,8263,Steeles Ave West At Palm Gate Blvd,43.7945399,-79.43638
1248,4139,King St East At Ontario St,43.6518599,-79.36588
1249,9738,Evans Ave At Wickman Rd West Side,43.6149699,-79.53032
1250,13450,Lambton Ave At Cashman Cres (East),43.68356,-79.4870399
1251,2301,1995 Eglinton Ave East,43.72877,-79.2828099
1252,15734,Sheppard Ave East At Brownspring Rd East Side,43.78886,-79.2620099
1253,4932,Culford Rd At Ridge Point Cres,43.70332,-79.48672
1254,9095,Whitehorse Rd At Rimrock Rd,43.7561399,-79.4710799
1255,6669,Pharmacy Ave At Beverly Glen Blvd,43.80169,-79.32951
1256,9228,Sentinel Rd At Fredrick Mowat Lane South Side,43.74565,-79.4925
1257,6889,The Queensway At Glendale Ave (St Joseph'S),43.6392999,-79.45107
1258,4535,77 Progress Ave,43.7715499,-79.27614
1259,9882,Steeles Ave East At Walkway To Dairis Cres,43.82925,-79.2835399
1260,14883,St Clair Ave West At Northcliffe Blvd East Side,43.6784899,-79.4403
1261,13624,King St West At Shaw St East Side,43.6414499,-79.41453
1262,11304,Sewells Rd At Empringham Dr,43.8122599,-79.21404
1263,14757,Scarborough Centre Station,43.7742899,-79.25875
1264,3999,Keele St At Gulliver Rd,43.69967,-79.47614
1265,4665,Tapscott Rd At Washburn Way,43.8043899,-79.2244
1266,1429,Orfus Rd At Dufferin St West Side,43.72041,-79.4565899
1267,4385,Kipling Ave At Warnica Ave,43.62282,-79.52768
1268,3855,Islington Ave At Winnipeg Rd,43.6923699,-79.54438
1269,2855,Main St At Doncaster Ave,43.69156,-79.30325
1270,11794,Queen St West At York St,43.6512899,-79.38479
1271,3374,Broadview Ave At Queen St East,43.6591099,-79.3500199
1272,1123,Gerrard St East At Kingsmount Park Rd,43.6798599,-79.31266
1273,7946,Victoria Park Ave Loop At Steeles Ave East,43.8166199,-79.34141
1274,6776,Prince Edward Dr South At Glenaden Ave East,43.64285,-79.50287
1275,6354,East Ave At Clark Secor Pl North Side,43.78995,-79.13541
1276,3426,Chesswood Dr At Champagne Dr,43.76413,-79.47642
1277,0766,Chaplin Cres At Duplex Ave,43.69788,-79.3981999
1278,10531,Pape Ave At Minton Pl,43.6949099,-79.35085
1279,7137,Sheppard Ave East At Murison Blvd West Side,43.79897,-79.2142999
1280,8630,Wellesley St East At Ontario St,43.66753,-79.3722599
1281,10522,Ellesmere Rd At Muirbank Blvd,43.79397,-79.1576299
1282,0229,Bathurst St At Yorkview Dr South Side,43.77231,-79.44275
1283,3220,Yonge St At Davenport Rd,43.67299,-79.38798
1284,6544,Marlee Ave At Glengrove Ave South Side,43.71052,-79.44452
1285,5433,Leslie St At Corning Rd,43.7817699,-79.3659699
1286,2367,Eglinton Ave West At Kane Ave East Side,43.69122,-79.4700099
1287,7049,Runnymede Rd At Bloor St West South Side,43.6508499,-79.47626
1288,2269,Eglinton Ave East At Falcon St West Side,43.70917,-79.3866999
1289,0688,Burnhamthorpe Rd At Silver Shadow Path,43.6418299,-79.57833
1290,14353,St Clair Ave West At Russell Hill Rd,43.6851899,-79.40794
1291,4341,Kipling Ave At New Toronto St South Side,43.60359,-79.51931
1292,0762,Cordova Ave At Central Park Roadway,43.64761,-79.52619
1293,3221,Yonge St At Dundas St East (Dundas Station),43.6561999,-79.3807599
1294,10946,Queens Quay Ferry Docks Terminal,43.64142,-79.37709
1295,3470,Davenport Rd At Osler St,43.6704599,-79.4600299
1296,1806,Cummer Ave At Conacher Dr,43.7916499,-79.39654
1297,8283,Steeles Ave West At Islington Ave,43.7645399,-79.5746
1298,5195,Lake Shore Blvd West At Park Lawn Rd,43.6227799,-79.48131
1299,2212,The East Mall At Keane Ave North Side,43.64921,-79.56031
1300,11000,Opposite 230 The Donway West,43.7387499,-79.34677
1301,5329,Lawrence Ave East At Warden Ave,43.7455499,-79.29456
1302,1569,St Clair Ave East At Midland Ave,43.71854,-79.2515899
1303,7025,Royal York Rd At Royaleigh Ave South Side,43.6982199,-79.53368
1304,12127,Overlea Blvd At Leaside Park Dr,43.7035499,-79.35156
1305,2319,Eglinton Ave East At Warden Ave,43.7276299,-79.28786
1306,10146,Brimley Rd At Sheppard Ave East,43.78739,-79.26802
1307,5221,Lansdowne Ave At Seaforth Ave,43.64278,-79.43759
1308,2829,Lesmill Rd At Valleybrook Dr West Side,43.7577899,-79.35547
1309,0773,Christie St At Follis Ave North Side,43.6686099,-79.4203099
1310,15924,2615 Danforth Ave,43.68855,-79.2996799
1311,1373,Neilson Rd At Berner Trail,43.80229,-79.2178299
1312,1950,Don Mills Rd At Leith Hill Rd,43.7772899,-79.3481599
1313,13636,Markham Rd At Kirkham Dr,43.8510499,-79.25424
1314,8225,Steeles Ave East At Henderson Ave,43.8011899,-79.40615
1315,4231,Kingston Rd At Hunt Club Dr,43.68369,-79.2769799
1316,1009,Dupont St At Emerson Ave,43.66741,-79.4440299
1317,5194,Lake Shore Blvd West At Norris Cres,43.6107,-79.4899799
1318,6605,Morningside Ave At Lavinia Ave East Side,43.64524,-79.4765899
1319,1481,Rathburn Rd At Haliburton Ave,43.659,-79.5465199
1320,13668,Markham Rd At Steeles Ave East South Side,43.8360799,-79.25132
1321,11842,Jane St At Lambton Ave,43.68093,-79.49752
1322,15639,King St West At Bay St West Side,43.6486199,-79.38062
1323,5744,Midland Ave At South Shields Ave,43.8069199,-79.2886
1324,1643,The West Mall Cres At The West Mall West Side,43.6272399,-79.5594899
1325,8698,Weston Rd At Bradstock Rd,43.7388699,-79.5392199
1326,13173,St Clair Ave West At Lansdowne Ave West Side,43.6761899,-79.45112
1327,1307,McCowan Rd At Middlefield Rd,43.7985299,-79.2622899
1328,4116,Kennedy Rd At Radnor Ave,43.7460299,-79.2738099
1329,5742,Midland Ave At Sheppard Ave East,43.7851899,-79.2782999
1330,14968,Finch Ave East At McCowan Rd West Side,43.8079199,-79.26745
1331,6493,Kingston Rd At Military Trail,43.7813899,-79.16999
1332,3615,Opposite 685 Finch Ave West (St Bernards),43.77105,-79.4574499
1333,7971,Military Trail At Conlins Rd North Side,43.78378,-79.18221
1334,4874,143 Church St,43.70731,-79.5137699
1335,7101,Scarlett Rd At Saxony Cres,43.6908799,-79.5160999
1336,0238,Bay St At College St,43.66067,-79.38567
1337,0087,Bathurst St At Ava Rd,43.69785,-79.42418
1338,11710,Bedford Rd At Dupont St,43.67606,-79.40032
1339,0189,Bathurst St At Ranee Ave,43.7270699,-79.4316599
1340,11600,Middlefield Rd At Select Ave,43.8291399,-79.2661199
1341,3485,Dorothy St At Greenwood Ave,43.6659499,-79.32631
1342,8104,Sloane Ave At Eglinton Ave East North Side,43.7264699,-79.31319
1343,11380,Canmore Rd At Calverley Trail (West) East Side,43.79326,-79.18184
1344,0435,Birchmount Rd At Merryfield Dr,43.7518799,-79.2864599
1345,4232,Kingston Rd At Kildonan Dr,43.68996,-79.2673399
1346,7863,Humber College Blvd At John Garland Blvd,43.7335499,-79.59383
1347,2064,Dufferin St At Jane Osler Blvd - Yorkdale Shopping Centre,43.7247399,-79.4572999
1348,7218,Sheppard Ave East At Midland Ave,43.7855,-79.2783899
1349,0830,College St At Euclid Ave,43.6555999,-79.41145
1350,15471,Dufferin St At Wingold Ave,43.7039299,-79.45257
1351,6240,Ameer Ave At Sultana Ave,43.72704,-79.44035
1352,6989,Royal York Rd At Dartmouth Cres,43.60555,-79.49402
1353,1517,Royal York Rd At Lynngrove Ave,43.6514699,-79.5132399
1354,3713,Horner Ave At Connorvale Ave,43.6054799,-79.5288
1355,5547,Maple Leaf Dr At Stella St,43.71018,-79.5002799
1356,6553,Marlee Ave At Stayner Ave,43.7056499,-79.4425399
1357,4606,Spadina Rd At Archer Rd,43.6960299,-79.4156399
1358,10271,Linkwood Lane At Opposite 5 Shady Golfway,43.71763,-79.32634
1359,6292,Carlaw Ave At Queen St East,43.6613199,-79.3402799
1360,0396,Birchmount Rd At Comstock Rd,43.72382,-79.27548
1361,6941,Rexdale Blvd At Frost St East Side,43.7122599,-79.56376
1362,7296,Sheppard Ave West At Senlac Rd,43.7587699,-79.42288
1363,14281,The Queensway At Ellis Ave East Side,43.63793,-79.4656799
1364,6824,Queen St East At Woodbine Ave,43.6686399,-79.30594
1365,8767,Weston Rd At Sheppard Ave West,43.7338899,-79.5384199
1366,8944,Yonge Blvd At Harley Ave,43.7381499,-79.4117299
1367,0273,Bayview Ave At Garnier Park,43.8010499,-79.3954899
1368,4223,Kingston Rd At Fenwood Heights,43.7272699,-79.22971
1369,8285,Steeles Ave West At Islington Ave Loop,43.7641499,-79.57634
1370,13679,85 Dynamic Dr,43.8245699,-79.2515
1371,0916,Danforth Ave At Woodington Ave,43.68404,-79.3206999
1372,6601,Middlefield Rd At Opposite Walkway To Buckhurst Cres,43.8053099,-79.25455
1373,7322,Sherbourne St At King St East,43.6511,-79.36812
1374,5760,Morning Star Dr At Manion Rd,43.7125699,-79.64774
1375,5651,Martin Grove Rd At Vulcan St South Side,43.7046099,-79.5769799
1376,11089,Opposite 209 Carrier Dr,43.74708,-79.61487
1377,0224,Bathurst St At Woburn Ave,43.7224299,-79.4303799
1378,8534,Warden Ave At Bertrand Ave,43.73291,-79.28951
1379,7335,South Dr At Glen Rd,43.6776599,-79.37497
1380,6334,Crescent Rd At Rosedale Rd East Side,43.67774,-79.3845399
1381,15244,Sheppard Ave East At Midland Ave,43.78523,-79.2796699
1382,14496,Evans Ave At Gamma St West Side,43.61267,-79.5406099
1383,9964,Old Dundas St At Humber Hill,43.6644999,-79.50149
1384,2608,Finch Ave West At Jayzel Dr,43.7507899,-79.54884
1385,8651,Wellesworth Dr At Rangoon Rd,43.66621,-79.57912
1386,8778,Weston Rd At Wilby Cres,43.6983399,-79.51145
1387,0811,College St At Bathurst St,43.65634,-79.4078399
1388,9131,Finch Ave East At Yonge St (Finch Station),43.78019,-79.4141099
1389,5597,Martin Grove Rd At Belfield Rd,43.7016999,-79.5752999
1390,3415,340 Chaplin Cres,43.7041899,-79.42124
1391,7891,Keele St At Humberside Ave,43.66154,-79.46281
1392,4566,Rogers Rd At Scott Rd,43.6822399,-79.46923
1393,9627,The East Mall At The Queensway,43.6162199,-79.54604
1394,5923,O'Connor Dr At Cranborne Ave,43.7231399,-79.30282
1395,7698,Ellesmere Rd At Military Trail (East),43.7864399,-79.18842
1396,1420,O'Connor Dr At Pape Ave,43.6933399,-79.35014
1397,0058,Avenue Rd At Davenport Rd,43.6746099,-79.3963999
1398,3088,Queen St West At Spadina Ave,43.6488899,-79.39606
1399,1886,Dawes Rd At Danforth Ave North Side,43.6897599,-79.29674
1400,1601,Steeles Ave West At Northwest Gate East Side,43.7777199,-79.51047
1401,1600,1900 Steeles Ave West,43.78438,-79.4829199
1402,8582,Warden Ave At Lawrence Ave East,43.74556,-79.29498
1403,6035,Rogers Rd At Oakwood Ave,43.68701,-79.4388699
1404,6730,Opposite 2036 Pharmacy Ave,43.77942,-79.31908
1405,5727,Midland Ave At Montgomery Ave,43.79083,-79.28072
1406,8332,Sutherland Dr At Millwood Rd,43.7032399,-79.3644
1407,0819,College St At Brock Ave,43.6518799,-79.4362
1408,15348,Queen St East At Sudbury St,43.6423999,-79.42734
1409,2485,Finch Ave East At Baylawn Dr,43.80298,-79.2890799
1410,3972,Keele St At Colville Rd,43.7063399,-79.47764
1411,9985,150 Culford Rd,43.7050999,-79.4872399
1412,1106,Gerrard St East At Sackville St,43.6625099,-79.36411
1413,3404,Ceramic Rd At Ashwarren Rd,43.75713,-79.48436
1414,2066,Dufferin St At King St West,43.63878,-79.4272
1415,5740,Midland Ave At Salome Dr,43.7816399,-79.2763999
1416,11582,Townsley Loop At Tonwsley St,43.6740399,-79.46358
1417,1677,Yorkdale Rd At Go Terminal (Yorkdale Station),43.7258899,-79.44876
1418,10874,Sewells Rd At Neilson Rd,43.8068099,-79.21827
1419,10713,Birchmount Rd At Steeles Ave East North Side,43.8219099,-79.31698
1420,2279,Eglinton Ave East At Kennedy Rd,43.73201,-79.2681999
1421,15885,Centennial College Bus Terminal,43.7858899,-79.22923
1422,15195,Select Ave At Markham Rd,43.8335899,-79.25067
1423,3614,685 Finch Ave West,43.7709399,-79.45681
1424,3739,Hullmar Dr At Hisey Cres (South),43.76998,-79.5301399
1425,1340,Mill Rd At Markland Dr North Side (Silverthorne C.i.),43.6368199,-79.58076
1426,10826,Nashdene Rd At Markham Rd West Side,43.8200999,-79.2471
1427,13472,Humberline Dr At Viewcrest Cir East Side,43.7321999,-79.6173399
1428,1645,William R Allen Rd At Overbrook Pl,43.7608699,-79.46493
1429,5672,McCowan Rd At Lawrence Ave East Scarborough General Hospital,43.7552399,-79.2452599
1430,6052,Shaw St At Queen St West,43.6444199,-79.4160799
1431,5592,1051 Martin Grove Rd @ Highway 409,43.7004299,-79.5747899
1432,7729,Elmhurst Dr At Henley Cres West Side,43.72873,-79.57179
1433,12063,Humberline Dr At Finch Ave West,43.7354799,-79.61787
1434,9395,Evans Ave At Cremorne Ave,43.6208499,-79.50136
1435,8563,Warden Ave At Fairfax Cres,43.7161,-79.28254
1436,6475,Lower Jarvis St At Lake Shore Blvd East,43.64543,-79.36968
1437,4221,Kingston Rd At Fallingbrook Rd,43.6821399,-79.27935
1438,7924,Lawson Rd At Cedarview Dr East Side,43.7868799,-79.15318
1439,5385,Lawrence Ave West At Ledbury St,43.7206999,-79.4226
1440,8241,Steeles Ave East At Victoria Park Ave West Side,43.8155799,-79.34218
1441,9101,44 Kodiak Cres,43.7548899,-79.46807
1442,1953,Don Mills Rd At McNicoll Ave,43.79977,-79.3542499
1443,3076,Queen St East At Victoria St (St Michaels Hospital),43.6525599,-79.37822
1444,7425,Victoria Park Ave At Sheppard Ave East South Side,43.7746499,-79.32291
1445,4972,Dixon Rd At Attwell Dr,43.68815,-79.5865599
1446,11232,Northover St At Slater Crt,43.7400999,-79.5009599
1447,3121,St Clair Ave East At Squires Ave,43.7079599,-79.30087
1448,5781,Mortimer Ave At Greenwood Ave,43.6885399,-79.33563
1449,8966,Yonge St At Castlefield Ave,43.71196,-79.39958
1450,0873,Danforth Ave At Byron Ave East Side,43.68083,-79.3349299
1451,14724,Kipling Station,43.6381999,-79.53494
1452,7133,Sheppard Ave East At Walkway To Burrows Hall Blvd,43.79695,-79.2229999
1453,7452,Windermere Ave At Morningside Ave,43.6447699,-79.4781699
1454,8478,Victoria Park Ave At Lawrence Ave East,43.7423,-79.31004
1455,3233,Yonge St At Irwin Ave,43.66677,-79.38543
1456,4049,Keele St At Wilson Ave South Side,43.7260499,-79.48212
1457,5324,Lawrence Ave East At Underhill Dr,43.74092,-79.3244899
1458,5527,Macdonell Ave At Queen St West North Side,43.6407299,-79.43799
1459,9509,Islington Ave At Resources Rd North Side,43.7084299,-79.5517199
1460,5230,Lawrence Ave East At Barrymore Rd,43.75445,-79.2513299
1461,5881,131 Oakdale Rd,43.74273,-79.5259
1462,3721,Horner Ave At Fima Cres,43.6057499,-79.52683
1463,7553,Birchmount Rd At Kingston Rd,43.6931399,-79.2624499
1464,4951,Danforth Rd At Wolfe Ave,43.72758,-79.2526899
1465,14092,Pearson Airport Terminal 1 (Ground Level Column R4),43.68174,-79.61104
1466,6291,Carlaw Ave At Lake Shore Blvd East,43.65595,-79.33805
1467,6932,Ranee Ave At Yorkdale Station,43.72346,-79.4480499
1468,5655,Martin Grove Rd At Westhumber Blvd,43.7259299,-79.5864699
1469,3922,Jane St At Shoreham Dr,43.76869,-79.52018
1470,6681,Pharmacy Ave At Comstock Rd,43.7191899,-79.2948099
1471,15873,Dundas St East At Regent Park Blvd,43.6604699,-79.36165
1472,15649,King St West At Portland St East Side,43.64446,-79.3994999
1473,7731,Elmhurst Dr At Islington Ave,43.7229899,-79.55906
1474,2197,Dundas St West At Yonge St (Dundas Station),43.6561899,-79.38119
1475,7329,Sherbourne St At Richmond St East South Side,43.65266,-79.36891
1476,9256,Thirtieth St At Horner Ave,43.6040999,-79.5335299
1477,0024,Annette St At Durie St,43.65934,-79.4829599
1478,9678,Brimley Rd At Steeles Ave East,43.82811,-79.28707
1479,0324,Bayview Ave At Tudor Gate North Side,43.74366,-79.38318
1480,5574,Markham Rd At Nugget Ave,43.79875,-79.24134
1481,4345,Kipling Ave At North Heights Rd North Side,43.6652699,-79.5454399
1482,14796,Warden Station,43.7110199,-79.28005
1483,16056,Weston Rd At Elsmere Ave,43.7010499,-79.5190899
1484,9038,Yonge St At Ranleigh Ave,43.7277499,-79.4027799
1485,6173,Weston Rd At Church St South Side,43.7026999,-79.52483
1486,1025,Dupont St At Shaw St,43.6704599,-79.4267
1487,13958,Fenside Dr At Slidell Cres,43.76331,-79.32906
1488,11504,Highway 27 At Queens Plate Dr (Woodbine Mall),43.7224499,-79.5977799
1489,2445,Evans Ave At Horner Ave,43.6171399,-79.51864
1490,2332,Eglinton Ave West At Blackthorn Ave,43.69184,-79.4654599
1491,10515,Ellesmere Rd At Watson St,43.7894599,-79.17583
1492,15886,Centennial College Bus Terminal,43.7860899,-79.22935
1493,14662,Dundas West Station,43.6568599,-79.45341
1494,3051,Queen St East At Jarvis St,43.6537999,-79.37308
1495,14956,Finch Station,43.7814399,-79.41502
1496,6187,The Westway At Epping St,43.6881099,-79.54591
1497,8887,Wilson Ave At William Cragg Dr,43.7223899,-79.50047
1498,12163,Lake Shore Blvd West At Colborne Lodge Dr,43.6375699,-79.45931
1499,4431,Lepage Crt At Keele St East Side,43.75809,-79.4889999
1500,7236,8800 Sheppard Ave East,43.8049599,-79.18706
1501,9283,Opposite 100 Antibes Dr,43.77957,-79.44699
1502,0013,Anglesey Blvd At The Kingsway,43.6642,-79.5217499
1503,9972,Lawrence Ave East At Stotts Ter West Side,43.78315,-79.1280399
1504,9074,York Mills Rd At Old Yonge St,43.7449299,-79.39928
1505,13894,Opposite 1000 New Westminster Dr,43.81606,-79.4550999
1506,14542,Opposite 2155 Lake Shore Blvd West,43.6257199,-79.47964
1507,1200,Aukland Rd At Bloor St West South Side,43.6401499,-79.5404499
1508,10291,250 Finchdene Sq,43.8210999,-79.23437
1509,1036,Eglinton Ave East At Midland Ave West Side,43.7344899,-79.25891
1510,14701,Jane Station,43.6499699,-79.48385
1511,0833,College St At Grace St,43.6549899,-79.4154399
1512,14785,Victoria Park Station,43.6937499,-79.28837
1513,9403,Evans Ave At Carnarvon Ave,43.6201399,-79.50412
1514,3794,Islington Ave At Fletcher Place,43.6914299,-79.5442899
1515,0172,Bathurst St At Marquette Ave,43.7341999,-79.4333399
1516,1452,Parliament St At Gerrard St East,43.66205,-79.36717
1517,6540,Marlee Ave At Elway Crt,43.7123399,-79.4450499
1518,15150,Pape Station,43.6800699,-79.34497
1519,3478,Disco Rd At Attwell Dr,43.70104,-79.5958099
1520,6976,Royal York Rd At Bloor St West,43.6471799,-79.5111299
1521,3580,Opposite 1111 Finch Ave West,43.7671299,-79.47517
1522,1168,Jane St At Ardagh St,43.6556499,-79.4869599
1523,7276,Sheppard Ave West At Easton Rd,43.75804,-79.4261499
1524,4842,Brimorton Dr At Scarborough Golf Club Rd,43.7700199,-79.21809
1525,13944,Opposite 125 The Queensway,43.6309599,-79.48193
1526,0854,75 Cosburn Ave,43.68891,-79.3509399
1527,8613,Warden Ave At Upton Rd,43.7181499,-79.28343
1528,2052,Dufferin St At Gibson St North Side,43.69077,-79.44812
1529,14994,Roncesvalles Ave At Grenadier Rd,43.64889,-79.45012
1530,2681,Guildwood Pkwy At Livingston Rd,43.7473499,-79.1994
1531,5700,Midland Ave At Emblem Crt,43.7790499,-79.2756599
1532,15883,Martin Grove Rd At Betteridge Ln North Side,43.7392099,-79.59275
1533,2175,Dundas St West At Ossington Ave,43.64927,-79.42094
1534,10870,Sewells Rd At Brenyon Way East Side,43.80795,-79.21503
1535,13719,O'Connor Dr At Wakunda Pl South Side,43.7157999,-79.3051399
1536,1955,Don Mills Rd At Moatfield Dr,43.7584599,-79.3469
1537,1812,Cummer Ave At Maxome Ave,43.79035,-79.4018199
1538,7801,Hackberry St At Woodbine Heights Blvd,43.70649,-79.3220399
1539,6662,Pharmacy Ave At Arnall Ave,43.8073,-79.33232
1540,8024,Parkwoods Village Dr At Brookbanks Dr,43.7609899,-79.32348
1541,0072,Avenue Rd At Wilson Ave South Side,43.7392599,-79.42152
1542,1198,Jones Ave At Sproat Ave,43.6677999,-79.3348899
1543,1933,Don Mills Rd At Freshmeadow Dr,43.8088299,-79.3587299
1544,13369,Queens Quay West At Dan Leckie Way East Side,43.6368,-79.3961699
1545,0852,Cosburn Ave At Coxwell Ave West Side,43.6940899,-79.32856
1546,9029,Yonge St At Mill St,43.7399499,-79.40568
1547,3234,Yonge St At King St East (King Station),43.6490499,-79.37775
1548,10789,Oriole Pkwy At College View Ave South Side,43.7021299,-79.4050599
1549,5018,Dundas St West At Jane St,43.6656,-79.49141
1550,5664,McCowan Rd At Brimorton Dr,43.76558,-79.24912
1551,8123,Spadina Ave At Front St West,43.6429299,-79.39403
1552,14696,High Park Station,43.6540699,-79.46589
1553,7404,Varna Dr At Lawrence Ave West North Side,43.7180699,-79.4377899
1554,6528,Toronto Zoo,43.8197399,-79.17995
1555,14531,Gerry Fitzgerald Dr At Steeles Ave West,43.7859599,-79.4745299
1556,8755,Weston Rd At Oxford Dr,43.6879099,-79.49179
1557,13658,Markham Rd At Station St - Markham Go Station,43.88237,-79.26199
1558,10540,Warden Ave At McNabb St,43.8329699,-79.32779
1559,8833,Wilson Ave At Agate Rd West Side,43.7258099,-79.48639
1560,6554,Marlee Ave At Viewmount Ave South Side,43.70688,-79.44301
1561,9238,North Queen St At Medulla Ave,43.62152,-79.5451999
1562,11554,Tapscott Rd At Finch Ave East,43.8144099,-79.2373799
1563,3475,Deauville Lane At St Dennis Dr South Side,43.71771,-79.33108
1564,0534,Bloor St West At Koos Rd,43.6346199,-79.56607
1565,4377,Kipling Ave At Stevenson Rd,43.74461,-79.58287
1566,7457,Woodsworth Rd At Northey Dr (West),43.7649699,-79.37024
1567,2184,Dundas St West At Shaver Ave South,43.6323399,-79.54464
1568,5560,Markham Rd At Ellesmere Rd,43.77666,-79.23202
1569,0476,Bloor St East At Castle Frank Rd,43.6740199,-79.36804
1570,8293,Steeles Ave West At New Westminster Dr,43.7900699,-79.45726
1571,1097,Gerrard St East At Logan Ave,43.66716,-79.3450799
1572,12197,Kennedy Rd At Purcell Sq South Side,43.8170699,-79.30426
1573,1828,Cummer Ave At Yonge St East Side,43.7871199,-79.41663
1574,8009,Overlea Blvd At Millwood Rd,43.70235,-79.3527299
1575,14673,Eglinton Station,43.7055299,-79.39924
1576,0320,3377 Bayview Ave,43.79701,-79.39452
1577,3066,Queen St East At River St,43.6572599,-79.35667
1578,6174,Weston Rd At Coral Gable Dr,43.73552,-79.53847
1579,9267,Bergamot Ave At Islington Ave West Side,43.7168399,-79.55676
1580,7108,Senlac Rd At Sheppard Ave West North Side,43.7594999,-79.4226999
1581,6331,Crescent Rd At Lamport Ave,43.67794,-79.37822
1582,11907,McCowan Rd At Highway 7,43.86735,-79.28479
1583,2360,Eglinton Ave West At Henning Ave,43.7062,-79.4013099
1584,14608,Markham Rd At Select Ave,43.83324,-79.25076
1585,15040,Nugget Ave At McCowan Rd East Side,43.7921299,-79.25911
1586,14689,Finch Station,43.7809399,-79.41499
1587,13901,Sheppard Ave East At Walkway To Murison Blvd,43.8010699,-79.20341
1588,6394,Foxwell St At Duern St,43.6710699,-79.4957
1589,1410,O'Connor Dr At Derwyn Rd,43.69647,-79.3350099
1590,5770,Mortimer Ave At Carlaw Ave,43.6853699,-79.34969
1591,3931,Jane St At Stong Crt,43.7617899,-79.5186199
1592,4543,Progress Ave At Brimley Rd,43.77508,-79.2633499
1593,8883,Wilson Ave At Ridley Blvd,43.7395099,-79.4236
1594,11536,John Garland Blvd At Collingdale Rd (East) East Side,43.73259,-79.5833999
1595,8369,Toba Dr At Fifeshire Rd West Side,43.7563699,-79.3899999
1596,4612,Spadina Rd At Kilbarry Rd,43.69263,-79.41426
1597,9170,Steeles Ave West Loop At Islington Ave,43.7640899,-79.57658
1598,11872,Bathurst St At Townsgate Dr,43.79422,-79.44598
1599,2616,Finch Ave West At Martin Grove Rd,43.7366199,-79.59187
1600,1016,Dupont St At Lansdowne Ave,43.6668299,-79.44633
1601,8237,Steeles Ave East At Townsend Rd,43.81174,-79.3576999
1602,9134,Grandravine Dr At Ollerton Rd,43.74959,-79.5018799
1603,9648,191 Nugget Ave,43.7949299,-79.25316
1604,5115,Hambly Ave At Queen St East North Side,43.6709399,-79.29687
1605,10890,Dovercourt Rd At Davenport Rd South Side,43.67393,-79.43456
1606,0742,Caledonia Rd At Rogers Rd,43.68339,-79.45825
1607,1724,Bayview Ave At Glenvale Blvd,43.71605,-79.37779
1608,8843,Wilson Ave At Apex Lane,43.7287199,-79.47577
1609,1748,The Bridle Path At Park Lane Cir,43.7309999,-79.3616099
1610,5511,Long Branch Loop,43.5918099,-79.54412
1611,15611,Woodbine Ave At Merrill Ave South Side,43.6830099,-79.3117599
1612,10851,Tapscott Rd At McNicoll Ave,43.82605,-79.24334
1613,9876,Sheffield St At Colville Rd,43.70736,-79.47121
1614,8101,Signet Dr At Ormont Dr,43.76544,-79.54089
1615,11570,Thistle Down Blvd At Kenhill Dr,43.7412699,-79.55378
